[
  {
    "id": "NTIC_[서해안선] 홍원육교_126.8717373",
    "name": "[서해안선] 홍원육교",
    "lat": 37.01796165,
    "lng": 126.8717373,
    "url": "http://cctvsec.ktict.co.kr/552/6Hzanl8ZVZ1oiiEX+Og6Jrft5ipjw7ewU4hCCjtCxPQyIH39hRY8t/RLf9QDZPGKHoV2JCo3c622hgWtC1ZoUb5NnCphW6HmnOGoVq4ohw8=",
    "source": "NTIC",
    "status": "active"
  },
  {
    "id": "NTIC_[서해안선] 고잔6교_126.8796367",
    "name": "[서해안선] 고잔6교",
    "lat": 37.03561219,
    "lng": 126.8796367,
    "url": "http://cctvsec.ktict.co.kr/548/aFBWRbSvxFZIXHWo+lBTs+aCG4ePwv/d1mhnau/4Qzma6RV4a0e/7jGb5T6EYX3Q0xCeA/2FW9tfcs4D14+3ZoA4jhFwHuxi7oo8qvIbVxY=",
    "source": "NTIC",
    "status": "active"
  },
  {
    "id": "NTIC_[서해안선] 서평택분기점_126.8885345",
    "name": "[서해안선] 서평택분기점",
    "lat": 37.05442286,
    "lng": 126.8885345,
    "url": "http://cctvsec.ktict.co.kr/107/pcNvNwFMpba+HwAw3YQorJ9hn+xzkzuMGEvo5V6AL8j9cAC5vybBfu8ylKG9vXaQwTIsJSiKY/op2nwNtZXyVj/7r9D/aQJbLAKsVoOMHtY=",
    "source": "NTIC",
    "status": "active"
  },
  {
    "id": "NTIC_[평택시흥선] 서평택JCT_126.884",
    "name": "[평택시흥선] 서평택JCT",
    "lat": 37.056,
    "lng": 126.884,
    "url": "http://cctvsec.ktict.co.kr/5141/XTNe9XXqQr4yTmJRWmUl5hE6BBq78Lp8fQtOE5t9Ioy6e8PyE/mWGl2ERqGrpWSCjRXx+lYZGQ8wkTQtk6ySPdUtWhyWyU7OdlIAUmN4dDw=",
    "source": "NTIC",
    "status": "active"
  },
  {
    "id": "NTIC_[서해안선] 서평택분기점2_126.8893333",
    "name": "[서해안선] 서평택분기점2",
    "lat": 37.05656667,
    "lng": 126.8893333,
    "url": "http://cctvsec.ktict.co.kr/94783/3bn6pdQRuGqSMXzbpgIi8FwgRydvXAE+tBXmFBELURxsNacYe4Q60WxjhpelPa1JEZEJ5pqNjLbtPMADS8DyrlttV8dwbsQeAkmS3sUKXA8=",
    "source": "NTIC",
    "status": "active"
  },
  {
    "id": "NTIC_[평택시흥선] 정든교_126.8648",
    "name": "[평택시흥선] 정든교",
    "lat": 37.06289,
    "lng": 126.8648,
    "url": "http://cctvsec.ktict.co.kr/5142/2ieGaM6vLYvUZpkjCGlErp192ARvuCOCQhRrqYW5NZI8kdd5hFO2FofauV7oCzl6RUNJv62gpM75j38mblt2Qs3CWOc8GeX5DcVY7Zw37FE=",
    "source": "NTIC",
    "status": "active"
  },
  {
    "id": "NTIC_[서해안선] 고잔1교_126.8894307",
    "name": "[서해안선] 고잔1교",
    "lat": 37.06367472,
    "lng": 126.8894307,
    "url": "http://cctvsec.ktict.co.kr/553/bZIfLXEdkG/kuKNZtcJRzjDawHwhmA82HHiwWUwH73t9xXLT+MHMAqZKYmKbZpo8VFwFfvsFnvkI3Bc28zrVDS/hOMbNgsI3iuX33i2vAgA=",
    "source": "NTIC",
    "status": "active"
  },
  {
    "id": "NTIC_[평택시흥선] 독정2육교_126.85366",
    "name": "[평택시흥선] 독정2육교",
    "lat": 37.07833,
    "lng": 126.85366,
    "url": "http://cctvsec.ktict.co.kr/5143/X6vrPLQJhedqqNCNo820tnLrFIbcQjMg3nIk7/cLtdlxZBmf2IVNV93SiEVz/dSErHQcA5B6rCDKZ+NNp5w4m9P5pM1dZLroxxX1bOOMkls=",
    "source": "NTIC",
    "status": "active"
  },
  {
    "id": "NTIC_[서해안선] 상신2교_126.8866607",
    "name": "[서해안선] 상신2교",
    "lat": 37.08395472,
    "lng": 126.8866607,
    "url": "http://cctvsec.ktict.co.kr/547/37vXzFo+uO7QI+N0Rgx+YRG/yWJqg3NlIGeqYRLHoyXaCYq9uDltBjChYjmMU42cghjEZ1POTA66Fn7kqaSeMDEAIqdhnOiKfPLzloT9iMI=",
    "source": "NTIC",
    "status": "active"
  },
  {
    "id": "NTIC_[평택시흥선] 장안영업소_126.8474",
    "name": "[평택시흥선] 장안영업소",
    "lat": 37.08985,
    "lng": 126.8474,
    "url": "http://cctvsec.ktict.co.kr/5144/+C7zwRgCfIgzhEISGKtyJEkD4XGc/sMgsg3TC+iVNQ2PxJ214bG0vdEcNsFHCWsOaD7KSQaEng/ZWKbBrD6n0ppyAgkdGHuNmIOznkcDpAI=",
    "source": "NTIC",
    "status": "active"
  },
  {
    "id": "NTIC_[제2순환선] 오성_126.9852778",
    "name": "[제2순환선] 오성",
    "lat": 37.01777778,
    "lng": 126.9852778,
    "url": "http://cctvsec.ktict.co.kr/2556/wBalPlOaPltmlN4UC/aLBsnApqrd2w2metmDsE8YxPYEBLV+wCs/x6DjHakINNdTcsYc6P2fI7I8lKDPRS2d+AwEecaSD7Cc6soJ69xcQ3k=",
    "source": "NTIC",
    "status": "active"
  },
  {
    "id": "NTIC_[평택제천선] 안화2교_126.991798400878",
    "name": "[평택제천선] 안화2교",
    "lat": 37.0237998962402,
    "lng": 126.991798400878,
    "url": "http://cctvsec.ktict.co.kr/2979/3pkt0bcV5MkfoCraxC+b4ulLwtruccqdi7sgbiBkN2bVJWK8etnAPxVLo9m/wIUt//RIfX182SsflSObQJQXeTo/mJkRCJeWkUQLRxc21NE=",
    "source": "NTIC",
    "status": "active"
  },
  {
    "id": "NTIC_[평택제천선] 평택분기점_126.9708333",
    "name": "[평택제천선] 평택분기점",
    "lat": 37.03111111,
    "lng": 126.9708333,
    "url": "http://cctvsec.ktict.co.kr/109/V42srAiFD9QU7+VkcxFNWPcfnov2fNDUIq2z0mwmO6xnaxzyb6XcT+n73uDieC8Hnofj84A1kXGhvA9N2KFeKD1v8rtS8o0LobZnPpY5py4=",
    "source": "NTIC",
    "status": "active"
  },
  {
    "id": "NTIC_[평택제천선] 토진_126.972075",
    "name": "[평택제천선] 토진",
    "lat": 37.031325,
    "lng": 126.972075,
    "url": "http://cctvsec.ktict.co.kr/94781/11xgFUT+fQOTFTn/1+w+cvrEcNfozGCiZ8PCJdRjprxVgFSeKRutul7cxEPnS/GFqS7mxYMn4cIh8uD/17ebbfVuGDPtUxLwGr1BOHwjIz8=",
    "source": "NTIC",
    "status": "active"
  },
  {
    "id": "NTIC_[제2순환선] 평택분기점_126.9847222",
    "name": "[제2순환선] 평택분기점",
    "lat": 37.03333333,
    "lng": 126.9847222,
    "url": "http://cctvsec.ktict.co.kr/2548/E3HIOrbb2C5YsUEF8PXPreI9kLbNFGhFvBBiyUcNPZBCtqKZxKdFtne+Envw5AFYbnDwYRK2xf1CS0YvorL1UKoB4INV8ETOoNikc92KZN0=",
    "source": "NTIC",
    "status": "active"
  },
  {
    "id": "NTIC_[평택제천선] 토진2교_126.9510295",
    "name": "[평택제천선] 토진2교",
    "lat": 37.04433222,
    "lng": 126.9510295,
    "url": "http://cctvsec.ktict.co.kr/172/ct4p47Bard8E0404SkSOJf0exaFSEg39K4Mk1AO0RKBHz8eTTuM+sWqNu9tluHazeL4YEJBmgqKdSCKXHdAWgcdyL6GvBiOhICQkAYAq7AY=",
    "source": "NTIC",
    "status": "active"
  },
  {
    "id": "NTIC_[평택제천선] 청북_126.9847222",
    "name": "[평택제천선] 청북",
    "lat": 37.045,
    "lng": 126.9847222,
    "url": "http://cctvsec.ktict.co.kr/108/6yngjuX9EcWDM/HOSKsrDUAFxdq5dH3d9B0FlXecYbgnDhu/8Ip9D5norIieNkeO+yZO2N45K5rBjJJhRIJfLE8/Hd5Yauwkl/bTbvIu9Y8=",
    "source": "NTIC",
    "status": "active"
  },
  {
    "id": "NTIC_[평택화성선] 청북_126.9847222",
    "name": "[평택화성선] 청북",
    "lat": 37.045,
    "lng": 126.9847222,
    "url": "http://cctvsec.ktict.co.kr/2145/iq92RLC7rt7ofwLUqTP6IcPZHjSBiK24YMJwNe+KoMwcYhnYA1U6RdgkS6uYVMtQMTCWahVvS+KGk6cyL4e4Es1pEJcPNijPO++iBK1PL20=",
    "source": "NTIC",
    "status": "active"
  },
  {
    "id": "NTIC_[평택제천선] 현곡1교_126.934814453125",
    "name": "[평택제천선] 현곡1교",
    "lat": 37.048542022705,
    "lng": 126.934814453125,
    "url": "http://cctvsec.ktict.co.kr/2978/qSOipxUX58VvRXC8YVfej4IrXmcs5MM1rYKnP6wTOMNEoIuflqcMdEu0fKyN8eAyj/hXtTFJ+nnuvfTU7/obSC+beJILbxeJdbL/f/QQ8L8=",
    "source": "NTIC",
    "status": "active"
  },
  {
    "id": "NTIC_[평택제천선] 고잔_126.90437",
    "name": "[평택제천선] 고잔",
    "lat": 37.050459,
    "lng": 126.90437,
    "url": "http://cctvsec.ktict.co.kr/94782/9Ps+hfncFGFvi0eOufQO9Vm3w53xlHkJU3H8lEbVLbRbU8MS2AeQPYXOoEdGnNb5lmQKeZsns8C4ktFZVpt5yP/UULWnCcOrjbQ2VYvVkGI=",
    "source": "NTIC",
    "status": "active"
  },
  {
    "id": "NTIC_[제2순환선] 어연IC_126.98865",
    "name": "[제2순환선] 어연IC",
    "lat": 37.0585,
    "lng": 126.98865,
    "url": "http://cctvsec.ktict.co.kr/2547/8vhoWD1tG8Wf27fsxROEIzYkHccYUQqqAcoyLAOWFcAPjdak7Q6aWxV3HaSJUhafIWeZnozS4qyrTUdFjvrQB9RLBWVhzqrUcaHsTuPqOuc=",
    "source": "NTIC",
    "status": "active"
  },
  {
    "id": "NTIC_[제2순환선] 북평택영업소_126.9927778",
    "name": "[제2순환선] 북평택영업소",
    "lat": 37.07055556,
    "lng": 126.9927778,
    "url": "http://cctvsec.ktict.co.kr/2546/9XXRcYn6K3t+j8iGgn6wkvXM7QabZ2oiY7kSalAMungR2JBy5BCf/UJqRFolfTvySI4rjQN4lWSJWgy1d/ekLC+/55Cj8igXXb49o1et32o=",
    "source": "NTIC",
    "status": "active"
  },
  {
    "id": "NTIC_[평택화성선] 양감 정문리_126.9905556",
    "name": "[평택화성선] 양감 정문리",
    "lat": 37.08833333,
    "lng": 126.9905556,
    "url": "http://cctvsec.ktict.co.kr/2146/32lNBSv87fXA5Xec8Xj3nX9w+StLyQLAx/bPs7GLtwdA9ox35R/X9P9iVYuMYNN7aIMJeW1v6y+BWoPPD51/7ALqU5M7B7CwJBxV3kvFIl0=",
    "source": "NTIC",
    "status": "active"
  },
  {
    "id": "NTIC_[평택제천선] 궁리2교_127.0443567",
    "name": "[평택제천선] 궁리2교",
    "lat": 37.02470982,
    "lng": 127.0443567,
    "url": "http://cctvsec.ktict.co.kr/164/bSEnIK2HhNX44X9ZFTf6YXoDodcHCk7c9m64NZzWySyGfDCREdtKqTJ/V8SELsp7SFH69KOq+jYp10MTIujVaAOhYZj7hbZ1J7HRAbIaka4=",
    "source": "NTIC",
    "status": "active"
  },
  {
    "id": "NTIC_[평택제천선] 고덕_127.033111572265",
    "name": "[평택제천선] 고덕",
    "lat": 37.02587890625,
    "lng": 127.033111572265,
    "url": "http://cctvsec.ktict.co.kr/765/dMyoS/HdoZW4uCFHJQjdaEuvmRE2ZJTftHqr7hCjxiFP2dQcRrdMUvbcdppFfQ77QRpecsZ/yE6eJ0QjzT/te0frTbTG5tPecO821xfOLMg=",
    "source": "NTIC",
    "status": "active"
  },
  {
    "id": "NTIC_[평택제천선] 해창교_127.0183903",
    "name": "[평택제천선] 해창교",
    "lat": 37.02588444,
    "lng": 127.0183903,
    "url": "http://cctvsec.ktict.co.kr/110/aH9izc4uL3Ybe+KWNkYcNZT5s7iUrS0w4LtG1sp+oz5kgVnX2inxYZe0k7ziV57M42ijxiyQlhguzW3ToqG+vBXjAlogMkfSg00eocPqJis=",
    "source": "NTIC",
    "status": "active"
  },
  {
    "id": "NTIC_[평택제천선] 평택터널_127.0768079",
    "name": "[평택제천선] 평택터널",
    "lat": 37.02886982,
    "lng": 127.0768079,
    "url": "http://cctvsec.ktict.co.kr/111/nL0rBFG7JG5DiZ2JZU7kCqKvyYcUlD8kOFQC0+AXiaEyG5RkXWgk+DgrDb8f1xCB1F34+fPgIvLRARbTXlRfM32HiBDIEWuUNEuBFowBgUc=",
    "source": "NTIC",
    "status": "active"
  },
  {
    "id": "NTIC_[평택제천선] 송탄교_127.09242",
    "name": "[평택제천선] 송탄교",
    "lat": 37.037058,
    "lng": 127.09242,
    "url": "http://cctvsec.ktict.co.kr/95231/e9kxNArLNAoa9KcDCfo9GcNuCjs8LXccBWBlA48vpfDJ5EUZQRe3/+CQ4sfU8ICSD8wIfCiNnSa1yMueuf03pb1Rwr0F5OBWhjGLo9CKZHU=",
    "source": "NTIC",
    "status": "active"
  },
  {
    "id": "NTIC_[경부선] 공도_127.1511613",
    "name": "[경부선] 공도",
    "lat": 37.002476,
    "lng": 127.1511613,
    "url": "http://cctvsec.ktict.co.kr/2436/zpUyUbUbdHownE5l591yOhJBQF5I8ULo+M6kRkBX4u+QS05Ccy9mzspSfhyXJfa2VUQjXZhim7ogAbZbp+x7QyR2MAtvvBJ1OF+zog/fu/I=",
    "source": "NTIC",
    "status": "active"
  },
  {
    "id": "NTIC_[평택제천선] 공도교_127.1922176",
    "name": "[평택제천선] 공도교",
    "lat": 37.006277,
    "lng": 127.1922176,
    "url": "http://cctvsec.ktict.co.kr/167/+TijHnKy0XKpJLNKaBezDgfTMFcwB5z9Jwz/Dh7laFndzNJ4h/tLYyhV0TZA5aJOlmk1iRwxSe02yvPMG/AZVBGY3iFYAb2hCEszS7hpe+0=",
    "source": "NTIC",
    "status": "active"
  },
  {
    "id": "NTIC_[평택제천선] 만정교_127.178871154785",
    "name": "[평택제천선] 만정교",
    "lat": 37.0123748779296,
    "lng": 127.178871154785,
    "url": "http://cctvsec.ktict.co.kr/2981/KM/XSnL9Q43vR4CvlQ7dJqk1sMEGi8enrvIqeb6aVZIl7nzCqQ6FZu8EvIH8fwNUQ48gBIKbDGZ3pYa+mWqbcdmxp4HlCGDUTxm/QBhZm9E=",
    "source": "NTIC",
    "status": "active"
  },
  {
    "id": "NTIC_[평택제천선] 반제터널_127.172045",
    "name": "[평택제천선] 반제터널",
    "lat": 37.016264,
    "lng": 127.172045,
    "url": "http://cctvsec.ktict.co.kr/166/Jmxzr+JjZhuvIC8RnXNDwhqdNnn82i3PCkXIUCpm0WlohUvLnFVcDXiQFkEnpL92O4YNeQTKjgRvggL7+t7OZXS7z5yurXxQFUh3mvsPEKA=",
    "source": "NTIC",
    "status": "active"
  },
  {
    "id": "NTIC_[경부선] 안성휴게소(부산)_127.14417",
    "name": "[경부선] 안성휴게소(부산)",
    "lat": 37.01667,
    "lng": 127.14417,
    "url": "http://cctvsec.ktict.co.kr/502/9XwhDmYOqjQMlJgQG05GslQdW4bg2x9e3Jf/p1hxoQ51zpr2IqI9YGGa+vUKdeXUfR7/bNZW36gZ9M5ko/lolncVdsrKyozoNJjraAWu4bg=",
    "source": "NTIC",
    "status": "active"
  },
  {
    "id": "NTIC_[평택제천선] 청룡교_127.120109558105",
    "name": "[평택제천선] 청룡교",
    "lat": 37.0326652526855,
    "lng": 127.120109558105,
    "url": "http://cctvsec.ktict.co.kr/295/8/ZYciidERjVojUDwZjdtO2l+/h1EH5kcIwxF8RO3UJXUhwNlXzRSzUaZMIS2U7TnTBfYXmLcH1F+w3fn6u2zD1t88S1xQm6kASj6+yCfmg=",
    "source": "NTIC",
    "status": "active"
  },
  {
    "id": "NTIC_[평택제천선] 송탄2_127.115443",
    "name": "[평택제천선] 송탄2",
    "lat": 37.03315307,
    "lng": 127.115443,
    "url": "http://cctvsec.ktict.co.kr/2986/FtP3Om5jwG8oLWFLAjyIPgFgTGDzKRvE85bpnGS95m1t9mSCwKotJ1n77txsn9UcnrO+ibfwsb/14rtBz6YIp14tDUTRUumHSU/45YIi6eQ=",
    "source": "NTIC",
    "status": "active"
  },
  {
    "id": "NTIC_[평택제천선] 서안성_127.1598638",
    "name": "[평택제천선] 서안성",
    "lat": 37.03398629,
    "lng": 127.1598638,
    "url": "http://cctvsec.ktict.co.kr/165/Bpm5uNDTFy49YT2feJ5UQaKVkVD/LqN2ZtetyK0cu5RNhL+/O0tbGIjd1O63Hwoswwb8t3ztrxPCMBHNSj/tZ/bI+H0o8baMAjBNOkHz+P4=",
    "source": "NTIC",
    "status": "active"
  },
  {
    "id": "NTIC_[평택제천선] 안성분기점_127.1333129",
    "name": "[평택제천선] 안성분기점",
    "lat": 37.03479027,
    "lng": 127.1333129,
    "url": "http://cctvsec.ktict.co.kr/91/8msxT3o7AMIg5ZdtL9Ok9XVuzMpVLwLoCgTfjF/PMXyWXQeGLt9vUuuhHBM03RuHtd6FSjUUo4upsuJLbaR2VmeeyoN4YkrtMJr/6Nwz2q0=",
    "source": "NTIC",
    "status": "active"
  },
  {
    "id": "NTIC_[평택제천선] 송탄_127.1078518",
    "name": "[평택제천선] 송탄",
    "lat": 37.03483191,
    "lng": 127.1078518,
    "url": "http://cctvsec.ktict.co.kr/112/x+jiee5Iwm+npPZRb4XjGbG7SQpFG1gaKH8pPGnc1dQNtGF1yE8pq75lrL2sqkuE8AFg/3Sn0pf8JqdBvSjfImpR9hEesBLZEIybBftKemY=",
    "source": "NTIC",
    "status": "active"
  },
  {
    "id": "NTIC_[경부선] 안성분기점3_127.139353",
    "name": "[경부선] 안성분기점3",
    "lat": 37.035106,
    "lng": 127.139353,
    "url": "http://cctvsec.ktict.co.kr/94931/VWKcHekQSitAcLDYZjvfkBo5WLYEU5uDYOBPDe1vNNIzsYLy8QzzYmiW4W4bXC3sTcyuyg8w+jM+tCyMIhrZE6d3kedoIa4wEbxOV3UktJI=",
    "source": "NTIC",
    "status": "active"
  },
  {
    "id": "NTIC_[평택제천선] 강문교_127.150901794433",
    "name": "[평택제천선] 강문교",
    "lat": 37.0369720458984,
    "lng": 127.150901794433,
    "url": "http://cctvsec.ktict.co.kr/2980/76De8rDLvNkp/P0a/xU+ClLijRcVmR8yLa2Qimx3nHh4TWYhmlNm43Lw1O60vOTLKxP8ol/ArLPKwv3h03OnmgQor/91aiCfQoo1F3Bo/8o=",
    "source": "NTIC",
    "status": "active"
  },
  {
    "id": "NTIC_[경부선] 안성분기점2_127.1380556",
    "name": "[경부선] 안성분기점2",
    "lat": 37.04027778,
    "lng": 127.1380556,
    "url": "http://cctvsec.ktict.co.kr/2438/8zAxNuR/L4nWQuZOsNcGa3UV2Q4JlXkCLFt+neFctWyLVphoed2g/JrwwvEWKtDQlEsn+gQZBeX7ncVv0cc1SJ8xUdzO/Eh1hSam8kqXKzA=",
    "source": "NTIC",
    "status": "active"
  },
  {
    "id": "NTIC_[경부선] 안성분기점1_127.13806",
    "name": "[경부선] 안성분기점1",
    "lat": 37.04028,
    "lng": 127.13806,
    "url": "http://cctvsec.ktict.co.kr/114/IBiR/PQfYMtuTpyT/T1rk2c0VPDLrefchoA3nsM/jvxrHmCF3iMvt/lC8P56ZGl8ClhjFxFZEqqq1ZlO5l82TJzjYQi/sjMEpcCgHJyPFpk=",
    "source": "NTIC",
    "status": "active"
  },
  {
    "id": "NTIC_[경부선] 원곡_127.135994",
    "name": "[경부선] 원곡",
    "lat": 37.05147533,
    "lng": 127.135994,
    "url": "http://cctvsec.ktict.co.kr/2435/hZNlG6Qcmoxs5kUvIyaAiljFlwn4PmQEV9MG7v+2NQxtJMgqRcHGj0N/5Myo3g8Y0iiMW6m5DX/SaJTtbF0HwDQU4IfXYSN6v4fb0on3OXM=",
    "source": "NTIC",
    "status": "active"
  },
  {
    "id": "NTIC_[경부선] 안성휴게소(서울)_127.135",
    "name": "[경부선] 안성휴게소(서울)",
    "lat": 37.06972,
    "lng": 127.135,
    "url": "http://cctvsec.ktict.co.kr/72/3hsmQTCuXGwfX9Q+wUJYMHQYQFMfdcdXye8puGGxoafh5u1cKh2RDh25eup4I85eNc7fqBfziCKMy8j3tW/vGvl/f5qkl/IbkVkHOl0E97k=",
    "source": "NTIC",
    "status": "active"
  },
  {
    "id": "NTIC_[경부선] 안성휴게소2_127.130950927734",
    "name": "[경부선] 안성휴게소2",
    "lat": 37.0752563476562,
    "lng": 127.130950927734,
    "url": "http://cctvsec.ktict.co.kr/2761/tkxz9AQoYVtRPHMTxIZfFFpm4J0PnlLBPeOUR8yBMhdAkryeLMFg81ABTrjX5VEpHAfjJB0EYNDJGtlN6nxSDcIFxFHs+OseDkpILB2mRpE=",
    "source": "NTIC",
    "status": "active"
  },
  {
    "id": "NTIC_[경부선] 산하_127.128044128417",
    "name": "[경부선] 산하",
    "lat": 37.0801200866699,
    "lng": 127.128044128417,
    "url": "http://cctvsec.ktict.co.kr/2762/HyGj7dFenW/HshqNQ7VewZPVAwkXSW7TLAqilWhfzLb0lo7VORWek+wZZpJdawjeGlWCC8gWK5CWYpQXjZc4fdWz0pQQlwpqtA5kWeN3RC4=",
    "source": "NTIC",
    "status": "active"
  },
  {
    "id": "NTIC_[경부선] 남사정류장_127.125675",
    "name": "[경부선] 남사정류장",
    "lat": 37.085919,
    "lng": 127.125675,
    "url": "http://cctvsec.ktict.co.kr/509/HeZx2gBo6ucoFbG4WD+UYWTJ4xv5wOcIis39jna+UonHi7bgXyupCCu54jkMtLyKXkR8QNN5WFBkS8pjL8cT8SUhpgVtZ/CaE9LmKERnuik=",
    "source": "NTIC",
    "status": "active"
  },
  {
    "id": "NTIC_[경부선] 남사졸음쉼터_127.122673034667",
    "name": "[경부선] 남사졸음쉼터",
    "lat": 37.0919647216796,
    "lng": 127.122673034667,
    "url": "http://cctvsec.ktict.co.kr/2763/1ZtGdH7GaG3IlTa/wiUtEj1W6hh+FHabKr/JdR2SAPsAAmra2BLga1o+UQY3mcLuKx2CzoTG362nJS6uGNdvci2O/NGapuyaKtf7HI8hSow=",
    "source": "NTIC",
    "status": "active"
  },
  {
    "id": "NTIC_[세종포천선] 가율천교_127.2985741",
    "name": "[세종포천선] 가율천교",
    "lat": 37.05919042,
    "lng": 127.2985741,
    "url": "http://cctvsec.ktict.co.kr/95267/w3X9IOl/KYlpjVwUfDCCIGxENGh+whZLMn/RHsh6o2xmP2DY7lNwLJkgDNml75d1uV3Dt724ivqjCEHSK8fGKVpKcOnBGWnaYHj7VMDJLEQ=",
    "source": "NTIC",
    "status": "active"
  },
  {
    "id": "NTIC_[세종포천선] 가율_127.2962098",
    "name": "[세종포천선] 가율",
    "lat": 37.06992808,
    "lng": 127.2962098,
    "url": "http://cctvsec.ktict.co.kr/95268/4H3WEIxnJva08Z9NMC/zsL309V/uxkDeeJCheqWObXI4TJ7AQrhIrntMLMl/31YBbMLVnIK/Xi5SzAApSBZePplDU9lKNI/HSjbpDri+pMA=",
    "source": "NTIC",
    "status": "active"
  },
  {
    "id": "NTIC_[세종포천선] 고삼호수휴계소_127.2962098",
    "name": "[세종포천선] 고삼호수휴계소",
    "lat": 37.06992808,
    "lng": 127.2962098,
    "url": "http://cctvsec.ktict.co.kr/95269/bvID/nAPBFntZIR1dw5bFVTcObaKsLIu2HOxZDBR0iyeG5pkyk9qYpD7xnwLVs7VZcisdWRZHJhV+Lk4/mQiv/AEgyKOudBP2+Dqig1Js8Q=",
    "source": "NTIC",
    "status": "active"
  },
  {
    "id": "NTIC_[세종포천선] 조령천교_127.3184978",
    "name": "[세종포천선] 조령천교",
    "lat": 37.00287104,
    "lng": 127.3184978,
    "url": "http://cctvsec.ktict.co.kr/95260/GKi8nTXJRqbvMlItWlG3O26P854hCoNoJZqg+NAzrmIOGaAxzkZG3jpkQTWbwco5pWUhP3DzTBde9/x1EttzRk2hO8kSxQQZUSNY3+15TkE=",
    "source": "NTIC",
    "status": "active"
  },
  {
    "id": "NTIC_[세종포천선] 양복_127.3153367",
    "name": "[세종포천선] 양복",
    "lat": 37.01003404,
    "lng": 127.3153367,
    "url": "http://cctvsec.ktict.co.kr/95261/fiqTk9BOvi5N1jGZbwyi4WglGVOpxyhJ6zEmc5dlj2Zh8x3Ov0KyNNDx16zjYEkscDfR3iEFwInKaKn0c4ek87UDJ3tHK2jyTokh4YAcOyU=",
    "source": "NTIC",
    "status": "active"
  },
  {
    "id": "NTIC_[세종포천선] 안성맞춤_127.3107399",
    "name": "[세종포천선] 안성맞춤",
    "lat": 37.01797564,
    "lng": 127.3107399,
    "url": "http://cctvsec.ktict.co.kr/95262/16B0scIB92dXVv6D36nHZhBF6X4X8W1R8RQxO5jwaYUz/j55i3B3+PgAFdzMFnctzWbkhrwJn6RvNMWaPnfu4mMTAAiMZR7ZEXVSHai2lHU=",
    "source": "NTIC",
    "status": "active"
  },
  {
    "id": "NTIC_[세종포천선] 구사_127.3057519",
    "name": "[세종포천선] 구사",
    "lat": 37.02672001,
    "lng": 127.3057519,
    "url": "http://cctvsec.ktict.co.kr/95263/YnJGnBSB7agyWgJAup1BPGQZp3ZPjTc3EmbjQScYZTCLzTNaUgyOex/svpebmjXSkMGHfamVl1C66eRsOZRkUqxK6f9/vb+G3qRmOgeoMjI=",
    "source": "NTIC",
    "status": "active"
  },
  {
    "id": "NTIC_[세종포천선] 곡천교_127.3027428",
    "name": "[세종포천선] 곡천교",
    "lat": 37.03591869,
    "lng": 127.3027428,
    "url": "http://cctvsec.ktict.co.kr/95264/Qx9FKRscqqpjAksLpJocoCJM9JnxkXBtOFBlRWjXUstzlBna3vjr2i0Fnyb3dYdCMI7S8ZkkzuDG0F5RLuFTdLSf5Un3EeyJf5WCjP1Y7mc=",
    "source": "NTIC",
    "status": "active"
  },
  {
    "id": "NTIC_[세종포천선] 적가1교_127.3023511",
    "name": "[세종포천선] 적가1교",
    "lat": 37.04768319,
    "lng": 127.3023511,
    "url": "http://cctvsec.ktict.co.kr/95265/euJzv3h+HF52KrFyA5bf6zlz8DVPKyTGks729xwWyHcFRsczEXaRsL6pbL2JAZUP2qwVQuJSDAYwP4520cc/6G1k7PcmfgFuB5uCkZWHjd0=",
    "source": "NTIC",
    "status": "active"
  },
  {
    "id": "NTIC_[세종포천선] 적가_127.3003906",
    "name": "[세종포천선] 적가",
    "lat": 37.05509497,
    "lng": 127.3003906,
    "url": "http://cctvsec.ktict.co.kr/95266/Sl7NN07kiuyH6aTODg/PqFCXKl2hARi5dkAlyDvMd2QP9MvluMpylhx5ifQ8UueZNGO+XowoKzFfCULZ13pQoZ3Um2GHliD24valZ9LbUWQ=",
    "source": "NTIC",
    "status": "active"
  },
  {
    "id": "NTIC_[세종포천선] 고삼교_127.3011484",
    "name": "[세종포천선] 고삼교",
    "lat": 37.0875315,
    "lng": 127.3011484,
    "url": "http://cctvsec.ktict.co.kr/95270/f1gZXjcRTaK+Z7uf0RHsbeBk917Gpz1yE5AJToU1x+UMCSNMX8bubRm8zfoOXe2BjaboIUeJk6P9n3lKjqxdjdaoZILG3HXrWIs3FPqm5PI=",
    "source": "NTIC",
    "status": "active"
  },
  {
    "id": "NTIC_[중부선] 청용_127.4794205",
    "name": "[중부선] 청용",
    "lat": 37.0046564,
    "lng": 127.4794205,
    "url": "http://cctvsec.ktict.co.kr/3260/BtGQ5+A2y7ZZET0pSHgIvh3fnKY0wO/F5dqvUigZ0PnxsjJh0FUb/1YBEANcSUaWWqCq+03frosx71hbisCbT5fz/IXYdqc1ewGlPQuHTXE=",
    "source": "NTIC",
    "status": "active"
  },
  {
    "id": "NTIC_[중부선] 삼성_127.4818344",
    "name": "[중부선] 삼성",
    "lat": 37.01679611,
    "lng": 127.4818344,
    "url": "http://cctvsec.ktict.co.kr/94990/bbeL8oQNcUCLFO9mcwN4Vynz3oRGVGPOqIJFPqnN7A9PuZM7r+9FW4/fcuFcvo9ozZWEU8OLecTXbLsoPgApmkcxf7vxYMPKk8AAsI0WqXA=",
    "source": "NTIC",
    "status": "active"
  },
  {
    "id": "NTIC_[중부선] 음성휴게소_127.4830273",
    "name": "[중부선] 음성휴게소",
    "lat": 37.02471113,
    "lng": 127.4830273,
    "url": "http://cctvsec.ktict.co.kr/2300/5g9Eh1NUBxyAMgo5LVRAJH1vHeoBiVaZuWsg3onGo+FYfI+7QTEQrH+Au6L+mHa1WUZla9BbwRRuCy7GUhjSYupbhyrHgbEIQBENpnhKXjA=",
    "source": "NTIC",
    "status": "active"
  },
  {
    "id": "NTIC_[중부선] 화봉육교1_127.477104187011",
    "name": "[중부선] 화봉육교1",
    "lat": 37.0459403991699,
    "lng": 127.477104187011,
    "url": "http://cctvsec.ktict.co.kr/739/1lq0VNlDtNGmDIxAZdSfMktNlJp/17so9s8n0bjl7NWQ534T1lpVXo5ujQRnQ4PiKsdDSw4OAt/rTouVhO2540fcHafePy54xB2kmb19PuE=",
    "source": "NTIC",
    "status": "active"
  },
  {
    "id": "NTIC_[중부선] 화봉육교_127.4763158",
    "name": "[중부선] 화봉육교",
    "lat": 37.0502221,
    "lng": 127.4763158,
    "url": "http://cctvsec.ktict.co.kr/3264/OMys4yq8IT08l7n5Rw5kNMJ5xtV+nC5v5ZZHlGd0pyzNvXIlQ3Dsgmo3y1voxxUbQE1QjQZJSOvsR2GUBuwOr0rBjN2uY/5W4Osk8m1yJmQ=",
    "source": "NTIC",
    "status": "active"
  },
  {
    "id": "NTIC_[중부선] 장암1_127.466384887695",
    "name": "[중부선] 장암1",
    "lat": 37.073013305664,
    "lng": 127.466384887695,
    "url": "http://cctvsec.ktict.co.kr/740/UtA46PMUjR8jp+UbCyCxutxjODJDnpwy4mUd5V3u6W5otLmsKmktgOhkHXBlM4aDo0AD9XtgnkPiDyggYOX4N2k+5G7hihSd8FUZoeWWRAA=",
    "source": "NTIC",
    "status": "active"
  },
  {
    "id": "NTIC_[중부선] 장암_127.4642368",
    "name": "[중부선] 장암",
    "lat": 37.07588221,
    "lng": 127.4642368,
    "url": "http://cctvsec.ktict.co.kr/163/23dWKFCTUkVKR8MkDQPE8zrLmQFOEvN/oUeNGnBiO7LQUnUX0pCh9NfaOa/POqXKRaC80Dkx7Hvp1qqAnQLp2L+dRN0LyT9wYslzW0U2KLs=",
    "source": "NTIC",
    "status": "active"
  },
  {
    "id": "NTIC_[중부선] 일죽쉼터(남이)_127.459327697753",
    "name": "[중부선] 일죽쉼터(남이)",
    "lat": 37.0811538696289,
    "lng": 127.459327697753,
    "url": "http://cctvsec.ktict.co.kr/2967/x8+zwJxHm+SGZmzBVQbUarD7t0nMte6WSm1WIfP2OOgwMldTZvABa4jtRyr0gBbm+0kHJ+3+QpljuwqzT+sdH7Rt1Ee0oKJr4QvvBRaC29w=",
    "source": "NTIC",
    "status": "active"
  },
  {
    "id": "NTIC_[중부선] 일죽쉼터(하남)_127.458686828613",
    "name": "[중부선] 일죽쉼터(하남)",
    "lat": 37.0818977355957,
    "lng": 127.458686828613,
    "url": "http://cctvsec.ktict.co.kr/2968/U1owUg0QsHte/ocTzQ+5pwbQuHr/LVh3af+dTHev2urNUKf1PryNuIM2J4C9eYY+qotBelICyzhd/0wFOjplhSjMTfoS7BpucLZXYvjL9Ps=",
    "source": "NTIC",
    "status": "active"
  },
  {
    "id": "NTIC_[중부선] 일죽_127.4511868",
    "name": "[중부선] 일죽",
    "lat": 37.09061221,
    "lng": 127.4511868,
    "url": "http://cctvsec.ktict.co.kr/22/tuzqik2nZGON6W/Z1gK4A+2RpuWf1p64NruGjb6XKOCdn771W5ZEJAn2xcBd/KZr0YwD55MwrSIcMwkGqZj7kb4czFbja6uqvLVvNy6JNGo=",
    "source": "NTIC",
    "status": "active"
  },
  {
    "id": "NTIC_[중부선] 월정교_127.445907592773",
    "name": "[중부선] 월정교",
    "lat": 37.0987091064453,
    "lng": 127.445907592773,
    "url": "http://cctvsec.ktict.co.kr/2969/0irGgKrvQTdl/Wlfxexq2jyvEBFyb/QzDS4fKF9ZPy4K/mS2maoERJo1EVkLvxqv6NvIO/9L40a3oJ0VbxhYRf7YzMo50bw/XAdQnp7j5P0=",
    "source": "NTIC",
    "status": "active"
  },
  {
    "id": "NTIC_[평택시흥선] 장덕교_126.79481",
    "name": "[평택시흥선] 장덕교",
    "lat": 37.16706,
    "lng": 126.79481,
    "url": "http://cctvsec.ktict.co.kr/5150/a5WYQHsxPqtB+ciirhCPUoD7GGWNBo4Y74vkadqznUfoJ/KG/4myKLjtyDtWGk10UVuxAA54T1kATroHBCjN1SaW7DqNIxzBjiDpOM+D+DA=",
    "source": "NTIC",
    "status": "active"
  },
  {
    "id": "NTIC_[평택시흥선] 청원교_126.7806",
    "name": "[평택시흥선] 청원교",
    "lat": 37.17963,
    "lng": 126.7806,
    "url": "http://cctvsec.ktict.co.kr/5151/NvCHt4HoibezEDgGp4de+PNOPHcZCJ1gumUfxOeuWpUaGVwVaW6ZhNaR/Vvo4xEaVBnOMlhCtv90dzcbAA553QQSud8+Pen+YQLG+LdekX0=",
    "source": "NTIC",
    "status": "active"
  },
  {
    "id": "NTIC_[수도권제2순환선(봉담송산)] 마도IC_126.7835046",
    "name": "[수도권제2순환선(봉담송산)] 마도IC",
    "lat": 37.18784227,
    "lng": 126.7835046,
    "url": "http://cctvsec.ktict.co.kr/5769/8zlQF7cIwL3zF8b3Th/iYXwgCrHR+qFEgRQjr/cjdekZdk/r5FbclbCtgIPklPzRif+wYloRnTYGqmZi1YCxwwkpLEEsHzeoX1JzpSc37UY=",
    "source": "NTIC",
    "status": "active"
  },
  {
    "id": "NTIC_[수도권제2순환선(봉담송산)] 화성호교_126.7948306",
    "name": "[수도권제2순환선(봉담송산)] 화성호교",
    "lat": 37.18868414,
    "lng": 126.7948306,
    "url": "http://cctvsec.ktict.co.kr/5770/E3c7KJD1pA9qoECpy3fJS7e3sGPDiSr6/W4ZLEovZJ/TtLJ+0SwstQpDC3SJCxPIpWBPzheBYSEfp6HP+6Zpv7vp4GxMGy1uE+WCiOlpmM8=",
    "source": "NTIC",
    "status": "active"
  },
  {
    "id": "NTIC_[수도권제2순환선(봉담송산)] 마도JCT_126.7738175",
    "name": "[수도권제2순환선(봉담송산)] 마도JCT",
    "lat": 37.19162333,
    "lng": 126.7738175,
    "url": "http://cctvsec.ktict.co.kr/5768/wBM7WK9hjudYgiHNViyK0kz46a95WQCAw1Bxbo28FMH4vDM7HCU8um2t6L44U4h+FUfefl76Z4kXItf/6hYKFztT3W9FoZNUmrEesc3SO2g=",
    "source": "NTIC",
    "status": "active"
  },
  {
    "id": "NTIC_[평택시흥선] 석교교_126.77009",
    "name": "[평택시흥선] 석교교",
    "lat": 37.19565,
    "lng": 126.77009,
    "url": "http://cctvsec.ktict.co.kr/5152/kcNww5t5nclsEm0zQTt0q/LJN2wc+7FGrvoyiMPYZHkAMuubUB/qia6FjrYgkkvhTL+9LGYNRhR+yO9JcQPh+aL2xuhAm5P+2uJIeS7dQLs=",
    "source": "NTIC",
    "status": "active"
  },
  {
    "id": "NTIC_[평택시흥선] 수촌1교_126.841",
    "name": "[평택시흥선] 수촌1교",
    "lat": 37.101,
    "lng": 126.841,
    "url": "http://cctvsec.ktict.co.kr/5145/78jpAiAIJoq+gNWv2tDp+bBXOzjXG8CxtQlYUuaNZOl+reU5Q4kX++Q0KxdHXgJdfCCLbhtT9IX8Jx0pzfPoy1rzOUS3likIf6qmc4fYVSs=",
    "source": "NTIC",
    "status": "active"
  },
  {
    "id": "NTIC_[평택시흥선] 금의1육교_126.8315",
    "name": "[평택시흥선] 금의1육교",
    "lat": 37.10902,
    "lng": 126.8315,
    "url": "http://cctvsec.ktict.co.kr/5146/5gfkThrbKqdZ7KtBvG7mr9KMWm74f2/GcDAbk+qfFJukbX3ePYW7uAntzIPqqAUR7UZjgl2oLDhdjw6O+TrDeolGssOckdvzsc9KVs/vCHU=",
    "source": "NTIC",
    "status": "active"
  },
  {
    "id": "NTIC_[서해안선] 상신_126.8877389",
    "name": "[서해안선] 상신",
    "lat": 37.10947778,
    "lng": 126.8877389,
    "url": "http://cctvsec.ktict.co.kr/94784/sSR6bbDMMp1yl8Nbwzwpl6r9hmGmQGJyliBf9WcKx/ZJilT92J4JFBxUJ3j/kzf+jkxsOWnfjpcIIcP9G2ljBBwr2/LpzYjnFh6/7iarecw=",
    "source": "NTIC",
    "status": "active"
  },
  {
    "id": "NTIC_[서해안선] 발안천교_126.88583",
    "name": "[서해안선] 발안천교",
    "lat": 37.11389,
    "lng": 126.88583,
    "url": "http://cctvsec.ktict.co.kr/554/CSPEt7J5v3gDtRwRH3TABaKg669JFwKGf3QArg4otGuLk63WCzfpyFvB1mepLIX2uZcBYgMQuiDjnT1aUdszursctGuPagV+Xxb+3aZIysE=",
    "source": "NTIC",
    "status": "active"
  },
  {
    "id": "NTIC_[평택시흥선] 조암IC_126.817",
    "name": "[평택시흥선] 조암IC",
    "lat": 37.12,
    "lng": 126.817,
    "url": "http://cctvsec.ktict.co.kr/5147/XNK4uDTpP/GRku3LnCkYD/nxZfBvNM+wZCb41jlO8jzibBF0VIBnNWL97QhzgkLXYvinp4IyorB+hfkIXFBXgQi3H9Fx4koSUU0v13EVPGk=",
    "source": "NTIC",
    "status": "active"
  },
  {
    "id": "NTIC_[서해안선] 발안_126.8826051",
    "name": "[서해안선] 발안",
    "lat": 37.12341907,
    "lng": 126.8826051,
    "url": "http://cctvsec.ktict.co.kr/105/He8BH3FX0wXaVafslvL6NFyCspdM9Pnz/bz2o/9aRrTDQ2mR6Gw1VvACjOe3U8nYzyNKjg/oRZS1BfHHN8GrOMRa35ErRywDelNqziINiSo=",
    "source": "NTIC",
    "status": "active"
  },
  {
    "id": "NTIC_[서해안선] 덕천교_126.880393981933",
    "name": "[서해안선] 덕천교",
    "lat": 37.1292724609375,
    "lng": 126.880393981933,
    "url": "http://cctvsec.ktict.co.kr/274/bJv5z2i1RXjywA0cTHDbPsidxtgYSWXhzYLjOwlK6jxpVaHTtCSrKRWjeoliMSJNRbl48P2TcBQj+o+Y7VBz1lbSe4hOicv/dtSpgafBfeg=",
    "source": "NTIC",
    "status": "active"
  },
  {
    "id": "NTIC_[평택시흥선] 주곡1교_126.809808",
    "name": "[평택시흥선] 주곡1교",
    "lat": 37.133153,
    "lng": 126.809808,
    "url": "http://cctvsec.ktict.co.kr/5148/Xsueadc9HMxykYTPGV1oj8bcoGTqZxczZWRXGoi3IUiqY12T1z2DgfU2j2pWVYZQ97CHTDlGY4yKz+Gdmq375fWNNb7VfvbebUgoJKQ6/Q8=",
    "source": "NTIC",
    "status": "active"
  },
  {
    "id": "NTIC_[서해안선] 화성휴게소2_126.880519",
    "name": "[서해안선] 화성휴게소2",
    "lat": 37.140265,
    "lng": 126.880519,
    "url": "http://cctvsec.ktict.co.kr/555/bpbrey6EYxGJiTFZxeXDTcEi7pFpaB6PKkJ9hlyTzJLf1BfxRJRzIQOA+dIAsJ540VEzQaX6rkXRWKEe6krGn0hkgn6XFja8egF+OzAiu/I=",
    "source": "NTIC",
    "status": "active"
  },
  {
    "id": "NTIC_[서해안선] 화성휴게소_126.879658",
    "name": "[서해안선] 화성휴게소",
    "lat": 37.14762,
    "lng": 126.879658,
    "url": "http://cctvsec.ktict.co.kr/113/2WBos4MOTbg+2gwXszYP+Na3e/KwyUPAxeK0t3+V5W2ReW/1kauMAq3TCIKCXf5cxtOUZDXxMn2lFo64KtlST30LSB5bUXGCOQ3tI1Q5Iuk=",
    "source": "NTIC",
    "status": "active"
  },
  {
    "id": "NTIC_[서해안선] 노하2교_126.87971496582",
    "name": "[서해안선] 노하2교",
    "lat": 37.148136138916,
    "lng": 126.87971496582,
    "url": "http://cctvsec.ktict.co.kr/275/Q9Krn+hiFmRsORi4E+UTjrr1C4nhhCaQHTnf3FfKua1p2D1vhxdxWM61Eecu3F9qS1qOh3/pM0hxCpbfRECyTEH7S1D2fIYfapHozbnFG28=",
    "source": "NTIC",
    "status": "active"
  },
  {
    "id": "NTIC_[평택시흥선] 남양교_126.80288",
    "name": "[평택시흥선] 남양교",
    "lat": 37.15136,
    "lng": 126.80288,
    "url": "http://cctvsec.ktict.co.kr/5149/SFnoX2mHHP70ohLC8VqTSlvSUlonmPND+/EQOXk3Ku82uuCbBsZcgPIyz+ronJtoEVI04Z4QaAoLz8AHqaeT7+SPDEbgDT/u55KmRWKRMSI=",
    "source": "NTIC",
    "status": "active"
  },
  {
    "id": "NTIC_[서해안선] 노하1교_126.873992919921",
    "name": "[서해안선] 노하1교",
    "lat": 37.1655578613281,
    "lng": 126.873992919921,
    "url": "http://cctvsec.ktict.co.kr/2840/UW0fSQw/B5nXIW/HY0zBWH16O6HtD39nQu65HYYkCK7yKE8k5AS02a5X+MKcPp5WQvJhSl4Z+y/IRpftRqQxVj5Ss62ZYhiahyEvSNE4uOw=",
    "source": "NTIC",
    "status": "active"
  },
  {
    "id": "NTIC_[서해안선] 율암교_126.8740002",
    "name": "[서해안선] 율암교",
    "lat": 37.17056,
    "lng": 126.8740002,
    "url": "http://cctvsec.ktict.co.kr/545/hSztGL4jJp8TzjYQ6koVgao3JPvj2wsZ3itO8a1Ix9eTyaV5kR00n3LijXkCE8dvLaxm2omHu9pyQtOpmJi2rI7Xwk7MOTAfvwwQOiZ1Qyg=",
    "source": "NTIC",
    "status": "active"
  },
  {
    "id": "NTIC_[서해안선] 하저1교_126.8731702",
    "name": "[서해안선] 하저1교",
    "lat": 37.18306,
    "lng": 126.8731702,
    "url": "http://cctvsec.ktict.co.kr/556/XNOwKgMCw7Ngj4XunOKEYHgRaneKIPb4Aqefy3adT+ybmcTmtoYl5TrZ1pmn9RSI7P53pp9FqRdlkCUDL5qHqFKWzsW2sf1tOwK/H3IW6xQ=",
    "source": "NTIC",
    "status": "active"
  },
  {
    "id": "NTIC_[수도권제2순환선(봉담송산)] 신남교_126.82933",
    "name": "[수도권제2순환선(봉담송산)] 신남교",
    "lat": 37.18722346,
    "lng": 126.82933,
    "url": "http://cctvsec.ktict.co.kr/5772/869Aa2nkkmCYFf4qwaYJA7VeIaqEcxjzTQuzxLgFql5t3faIgZfnMT1AjqJYfTvcReqhWP0IbVZVYPsk0GvgHHTDamro7VNBMjNEsOAIUT4=",
    "source": "NTIC",
    "status": "active"
  },
  {
    "id": "NTIC_[수도권제2순환선(봉담송산)] 화성IC_126.8144192",
    "name": "[수도권제2순환선(봉담송산)] 화성IC",
    "lat": 37.18882815,
    "lng": 126.8144192,
    "url": "http://cctvsec.ktict.co.kr/5771/GClaUbguBh/aaw4qZnYbYzJ6Uf0vyL93OK3tDS2pMptZwXBmxMkondtptWpNDAraPAjHG3mectAQnM/cH1+MUVQ+SSqoHA8+aazIxEwbwvs=",
    "source": "NTIC",
    "status": "active"
  },
  {
    "id": "NTIC_[수도권제2순환선(봉담송산)] 남양졸음쉼터_126.8477899",
    "name": "[수도권제2순환선(봉담송산)] 남양졸음쉼터",
    "lat": 37.18891609,
    "lng": 126.8477899,
    "url": "http://cctvsec.ktict.co.kr/5773/PUb7UP6wJb8VJo/sxpnBAIGm4/yA1wyyRXKMBeisNB0wci6TF4hEOhR+X7tWFnZf/EXIGn07rAXv82mv1UN0oZ7ZiwKh9g21164JbEK2gEs=",
    "source": "NTIC",
    "status": "active"
  },
  {
    "id": "NTIC_[수도권제2순환선(봉담송산)] 팔탄분기A_126.8711871",
    "name": "[수도권제2순환선(봉담송산)] 팔탄분기A",
    "lat": 37.19078251,
    "lng": 126.8711871,
    "url": "http://cctvsec.ktict.co.kr/5774/2ikHrlLg97EGlS6xioRB1QOJ3huyDRVSx2M4i+I6V3lE5NiXlYjPbqUCYuwhBEcFv724IKUm3TBx/WAcgli7tz7rdb40w17Varpxet0lhTg=",
    "source": "NTIC",
    "status": "active"
  },
  {
    "id": "NTIC_[수도권제2순환선(봉담송산)] 팔탄분기B_126.8711871",
    "name": "[수도권제2순환선(봉담송산)] 팔탄분기B",
    "lat": 37.19078251,
    "lng": 126.8711871,
    "url": "http://cctvsec.ktict.co.kr/5775/s5ri83VI76P1+W1FB9EDPgQaClxt4TXRHUZqq4c+5h6ZWEdma8MRWtqKblKiJWkwkRwq743ih5Yhz4vGpPuo3kBaVMV0MaYTf6Avu9//7BU=",
    "source": "NTIC",
    "status": "active"
  },
  {
    "id": "NTIC_[서해안선] 팔탄분기점_126.871498566",
    "name": "[서해안선] 팔탄분기점",
    "lat": 37.1961160826,
    "lng": 126.871498566,
    "url": "http://cctvsec.ktict.co.kr/8753/qvKfftnfRajoX/gWrqbB+RAlWcnOjvw3hoIA2PkcLH8AJA9EgxDK+LVyA+rueecLOxZq6vBwvmHNDIIaAPRFJ8jUFuDc36cVvjBTlljA4Vw=",
    "source": "NTIC",
    "status": "active"
  },
  {
    "id": "NTIC_[수도권제2순환선(봉담송산)] 남비봉IC_126.8823581",
    "name": "[수도권제2순환선(봉담송산)] 남비봉IC",
    "lat": 37.1992413,
    "lng": 126.8823581,
    "url": "http://cctvsec.ktict.co.kr/5784/BHwrOZK7JErqy9iliGcNnVy/J7/uW5K8UYxezPfM5Xm+s2/SjMt/SAjPSOeNvJbGXokOHv08J7scEScMmkuyk9ovfwB5IK6JSlT0cOBSB/U=",
    "source": "NTIC",
    "status": "active"
  },
  {
    "id": "NTIC_[제2순환선] 양감송산교_126.9955556",
    "name": "[제2순환선] 양감송산교",
    "lat": 37.10583333,
    "lng": 126.9955556,
    "url": "http://cctvsec.ktict.co.kr/2559/kUOZtnQGM7xqIHwiux70nMGszTtkImsg1tCkljW5lI/w5BUyFkXd7Lx15dd1yOG/PdhDPdAfdEVh2Ow1Qp/tRv+iZA31ZpYNU2wh98prdKU=",
    "source": "NTIC",
    "status": "active"
  },
  {
    "id": "NTIC_[제2순환선] 향남교_126.9972222",
    "name": "[제2순환선] 향남교",
    "lat": 37.12194444,
    "lng": 126.9972222,
    "url": "http://cctvsec.ktict.co.kr/2555/nLfBZI8kSYeP3qSdusdwoq9rxNehf4CM4Pv28W7nEwfikSodgi49tcFoijC+Cockn2VbCUWX47T/p3iBcvqboJn7vMfHpt+VGaqPnfeNK2o=",
    "source": "NTIC",
    "status": "active"
  },
  {
    "id": "NTIC_[제2순환선] 정남고지리_126.99749",
    "name": "[제2순환선] 정남고지리",
    "lat": 37.15863,
    "lng": 126.99749,
    "url": "http://cctvsec.ktict.co.kr/2550/7p0Jc/7XotZ6OT7zVGnSUXyVEzeMijThRigmGfmsdo0RHr83Q9IhxjQu16naYvpVkjdWqO+v2ql9YzGQMcjfdM0XnEg93MjxQxcLS1zHs5A=",
    "source": "NTIC",
    "status": "active"
  },
  {
    "id": "NTIC_[평택화성선] 정남용수교_126.9975",
    "name": "[평택화성선] 정남용수교",
    "lat": 37.16916667,
    "lng": 126.9975,
    "url": "http://cctvsec.ktict.co.kr/2147/zs4DcwQqwd0GHoZdVrdhKLv2A0Vp5se0RE5xN46ZOY9i3ssudOenFwJl90CKDXGoag1SGBWOWzeRi0XN/kdFCZD98wtQg1AIixbbpWlJkh8=",
    "source": "NTIC",
    "status": "active"
  },
  {
    "id": "NTIC_[평택화성선] 서오산분기점_126.99778",
    "name": "[평택화성선] 서오산분기점",
    "lat": 37.17639,
    "lng": 126.99778,
    "url": "http://cctvsec.ktict.co.kr/2142/Ip8Jj2qG+UDxml1V6wWZiH1jB0m54rK/NguzSIJCjAjYRXYey0UGk++ZDhS/nHmFBFnbwVA+XA9wxGr3aUiikYpp/y9IsrbOz7Hjeez9mU0=",
    "source": "NTIC",
    "status": "active"
  },
  {
    "id": "NTIC_[제2순환선] 정남괘랑2교_126.9827778",
    "name": "[제2순환선] 정남괘랑2교",
    "lat": 37.17888889,
    "lng": 126.9827778,
    "url": "http://cctvsec.ktict.co.kr/2545/1pHIjLEWjneWFZ1AgFAwEIGbDm04sJ4T+ebXhQ6Mhh2r2KyhNuWHIcpkWH5dr2THAGYERhP0JThNsdsVQN2lnp6TP4TP4p64a69M0lv2WTQ=",
    "source": "NTIC",
    "status": "active"
  },
  {
    "id": "NTIC_[제2순환선] 정남_126.97194",
    "name": "[제2순환선] 정남",
    "lat": 37.18333,
    "lng": 126.97194,
    "url": "http://cctvsec.ktict.co.kr/2553/xLKeIeSSGAFu90UbialPmnCyFkB/CEBiPBdOsCvUpyd6R5op/GSRcIstSwM2NTuxX+wH9ayt4xA1JiUlSo0/HlPaVIFveY4W7kkCm3pXJco=",
    "source": "NTIC",
    "status": "active"
  },
  {
    "id": "NTIC_[수도권제2순환선(봉담송산)] 화성JCT_126.9629339",
    "name": "[수도권제2순환선(봉담송산)] 화성JCT",
    "lat": 37.19684103,
    "lng": 126.9629339,
    "url": "http://cctvsec.ktict.co.kr/5783/goCq6sRwrD5REFKN3hCsqEZAiKqfuYiE4qwLVMsFfFEmeOOHHOI+Zzk+PfT7VjqUq/vBe2s91/NNx/OCSPKzdiQRdSRCBgZyDoh2bCxhViY=",
    "source": "NTIC",
    "status": "active"
  },
  {
    "id": "NTIC_[수도권제2순환선(봉담송산)] 화성분기_126.9560406",
    "name": "[수도권제2순환선(봉담송산)] 화성분기",
    "lat": 37.19779201,
    "lng": 126.9560406,
    "url": "http://cctvsec.ktict.co.kr/5782/aSvcvd7JBE2DfTbuiVm/KVGko6J291NdHmzKWDANBuVEkduYJGt9XIsYxsbmGgsxsu7sMTOBd8tLeoMCGL19qWJ/rs8+3GcgH8ADpDi2Vxo=",
    "source": "NTIC",
    "status": "active"
  },
  {
    "id": "NTIC_[제2순환선] 봉담 분천2교_126.9630556",
    "name": "[제2순환선] 봉담 분천2교",
    "lat": 37.19916667,
    "lng": 126.9630556,
    "url": "http://cctvsec.ktict.co.kr/2560/1yynydbuGtK/4SYrWVA6ZGQlnyGw5IxgviUgBPOpV/K2utzi9eYvbvB0z9OiRxGEsCO+GPLCJ+M2I06fevXDjZXZaJde8v4bIYMW+0UvBSE=",
    "source": "NTIC",
    "status": "active"
  },
  {
    "id": "NTIC_[경부선] 남사육교_127.09806",
    "name": "[경부선] 남사육교",
    "lat": 37.12583,
    "lng": 127.09806,
    "url": "http://cctvsec.ktict.co.kr/506/vsbTvPNA+ARY8cJb1Tnd0aL2C/Y0c9p16tooiBWU0tNUAezgO5Xjl1e3r/A+ISpJTParrnOhsxPGZ9fvkfRiMB0GL3+0j7Uw/M4eH+OMSGY=",
    "source": "NTIC",
    "status": "active"
  },
  {
    "id": "NTIC_[경부선] 원동_127.090648",
    "name": "[경부선] 원동",
    "lat": 37.131212,
    "lng": 127.090648,
    "url": "http://cctvsec.ktict.co.kr/2422/n6ZZF1/I+9g5s13hH8fP0+z3UINdrczR0gA6fExcFUTfwQHOMXY4ymylJBEVbzSu9649bZBvT8M4e3KqKxKP5UsuKrKhw7ofJaPxerNZo3U=",
    "source": "NTIC",
    "status": "active"
  },
  {
    "id": "NTIC_[제2순환선] 향남_127.0011111",
    "name": "[제2순환선] 향남",
    "lat": 37.13194444,
    "lng": 127.0011111,
    "url": "http://cctvsec.ktict.co.kr/2557/YGsncbMiF6K1CHbkNO2qw345nANPi9kqqSIW+0R7wuAb0kTQs4mrDBAdmcx7aD4ncoEl4V/5LLhJeAhY4tKf0D0gKxy0pYY4QUYNoT/oVqA=",
    "source": "NTIC",
    "status": "active"
  },
  {
    "id": "NTIC_[경부선] 오산_127.08417",
    "name": "[경부선] 오산",
    "lat": 37.14222,
    "lng": 127.08417,
    "url": "http://cctvsec.ktict.co.kr/73/o7L+pQ07Bd0kVV+JApcz6TFgqOGAWjEiVJUR9OU5AT0tq0p6///FbYvbDw0h7g1esOPSNUnAd2IanbM7ZbwkbyuCvKRzmByqC5U/Gsx0VBQ=",
    "source": "NTIC",
    "status": "active"
  },
  {
    "id": "NTIC_[제2순환선] 정남망월리_127.0019444",
    "name": "[제2순환선] 정남망월리",
    "lat": 37.145,
    "lng": 127.0019444,
    "url": "http://cctvsec.ktict.co.kr/2554/IqcGyDU7PoNIKfcd6dm2MbIK3oVjQQjLkGkG8QX3K0TrOi6oXDsR4GIVLfbT97niqFimo/nyQ4adMmvUZx3chGmFTweLOAT5HJRaCsvgMuU=",
    "source": "NTIC",
    "status": "active"
  },
  {
    "id": "NTIC_[경부선] 부산동_127.086496",
    "name": "[경부선] 부산동",
    "lat": 37.155528,
    "lng": 127.086496,
    "url": "http://cctvsec.ktict.co.kr/2420/ujiGVtLopmpsO8X6v+TVq0W9exX+E2bN1kn5U9WVdUJ+D4hW4gKjmO7Lxl94IAItoFVj2Usj6NDWMsV7sWS2yEIMh53rO7mj/u1hjzM/wQA=",
    "source": "NTIC",
    "status": "active"
  },
  {
    "id": "NTIC_[제2순환선] 오산 서랑동_127.0127778",
    "name": "[제2순환선] 오산 서랑동",
    "lat": 37.17055556,
    "lng": 127.0127778,
    "url": "http://cctvsec.ktict.co.kr/2141/OyQYgqIIe17tyNhlHKmOB52reykpSiIUaTAjQasOZvN7jYDrYRu29sViGWpUj2Vj3heIXOsPFAFKyK+7t3pTRCEM5LeP0AUB+hOM/Vp99nM=",
    "source": "NTIC",
    "status": "active"
  },
  {
    "id": "NTIC_[제2순환선] 오산지곶교_127.0280556",
    "name": "[제2순환선] 오산지곶교",
    "lat": 37.17388889,
    "lng": 127.0280556,
    "url": "http://cctvsec.ktict.co.kr/2552/rdfkMjVCDts4u/12GAVxh4YVEZvt+jBIP3iqH7TFM1BmvvFqZghdWFg6KUh3DDYQ17zynXyMwwLxp8qYZkNO3s93zBKDsP1grYBJK6iv+/0=",
    "source": "NTIC",
    "status": "active"
  },
  {
    "id": "NTIC_[수도권제2순환선(봉담동탄)] 동탄JC(동탄)_127.094965",
    "name": "[수도권제2순환선(봉담동탄)] 동탄JC(동탄)",
    "lat": 37.177608,
    "lng": 127.094965,
    "url": "http://cctvsec.ktict.co.kr/8596/qmOAZseCKgpQGw6RQcB042XNhxEYTm9SaLyWXpXOBkQU82pUrKhbOlwP9qDAGMVUlVOZwQqpyXfeAT+b3c3IPPxL8ic1wg23VFPdMCN0Kqw=",
    "source": "NTIC",
    "status": "active"
  },
  {
    "id": "NTIC_[수도권제2순환선(화성광주)] 동탄JC_127.0997279",
    "name": "[수도권제2순환선(화성광주)] 동탄JC",
    "lat": 37.17765147,
    "lng": 127.0997279,
    "url": "http://cctvsec.ktict.co.kr/80193/bOSNg7tXh054wDLeS0ID79/FZunQtZeLIwxKYlxkwNoiBla/Ez8fcC2IUnQHq7lH5xLFShofIMCtaXTrsBE5f8hXNtzJQfmdJlomfcf+tbY=",
    "source": "NTIC",
    "status": "active"
  },
  {
    "id": "NTIC_[평택화성선] 동탄오산천교_127.0875",
    "name": "[평택화성선] 동탄오산천교",
    "lat": 37.17806,
    "lng": 127.0875,
    "url": "http://cctvsec.ktict.co.kr/2140/yJwokHICSQORtqeTRCYe+VnQUXvjsVP+3pEemRA9azcDmsD/f8jVPo54Oq4EelvNizFOTY2vRNdlDMfKONGbUdSQYd7vthRKLmUfrEQMGlg=",
    "source": "NTIC",
    "status": "active"
  },
  {
    "id": "NTIC_[제2순환선] 동탄금곡교_127.0772222",
    "name": "[제2순환선] 동탄금곡교",
    "lat": 37.17916667,
    "lng": 127.0772222,
    "url": "http://cctvsec.ktict.co.kr/2551/UtbUChX9jnYyI893Be6YHpq2qFTAvdbQ+0lvBVlGErp9nucacgBfqVmLcR7JprBgR9I+VT/6F0otqZz3sED2D9Ut5yhcBPDi+EGP77MzW/c=",
    "source": "NTIC",
    "status": "active"
  },
  {
    "id": "NTIC_[제2순환선] 세교터널(서오산)2_127.045349",
    "name": "[제2순환선] 세교터널(서오산)2",
    "lat": 37.179999,
    "lng": 127.045349,
    "url": "http://cctvsec.ktict.co.kr/5226/WReT0vCn2vzUeOOavZ7rX5yw7ibtH+xJ8Qg5YEo45VD8kkd+VSlVoAci/Aj4BxoCdDDKunnSHhJEmezJr+rjuyR3ryO2ejj1kNbbL2wU3Pw=",
    "source": "NTIC",
    "status": "active"
  },
  {
    "id": "NTIC_[제2순환선] 세교방음터널2(봉담)_127.045048",
    "name": "[제2순환선] 세교방음터널2(봉담)",
    "lat": 37.180257,
    "lng": 127.045048,
    "url": "http://cctvsec.ktict.co.kr/5223/2mHGasDkLhDZYFN4o6hynxl+WtMqABtJOjuyqljohDi/Z+Y3Yg/gbN19Ply+Wehq66Ft/NpjVPO9+lOroI4iK2L3WVJPqS4DnZdCDiG7Ayk=",
    "source": "NTIC",
    "status": "active"
  },
  {
    "id": "NTIC_[수도권제2순환선(봉담동탄)] 필봉산터널(동탄)_127.0738395",
    "name": "[수도권제2순환선(봉담동탄)] 필봉산터널(동탄)",
    "lat": 37.1806966,
    "lng": 127.0738395,
    "url": "http://cctvsec.ktict.co.kr/8327/HZAbH5vpIE6s9XT7wqlYsO3wrp8aSBF8IElZ+ZfTr261VPZPoDJg+TrBxJQck2FHYT/IBujEOhECyPKHJ1DHNc0L3jpLqC81zEahtTtwi9A=",
    "source": "NTIC",
    "status": "active"
  },
  {
    "id": "NTIC_[제2순환선] 세교터널(동탄)_127.048268",
    "name": "[제2순환선] 세교터널(동탄)",
    "lat": 37.181135,
    "lng": 127.048268,
    "url": "http://cctvsec.ktict.co.kr/5224/HIBOwa02z0IbC1vFinA4UIG7J8FS6QwJVC4X2AsDiXjn+EmCnQppb/SqzFG2PoEDmid7r5R9OlFCXmb/IlOUFFrE0uv+8Fim6pZYeD1+f1k=",
    "source": "NTIC",
    "status": "active"
  },
  {
    "id": "NTIC_[경부선] 동탄분기점_127.0958333",
    "name": "[경부선] 동탄분기점",
    "lat": 37.18194444,
    "lng": 127.0958333,
    "url": "http://cctvsec.ktict.co.kr/505/+CI9P7kwGmqdtkDxZuFnQ31oixLHgeWky+e0MDViuVxLK4J0VNvMdFn1uoe7sHyasvzezCiemZE0cDPWM4PU+so+HnEJ466iPvVCNNehQJw=",
    "source": "NTIC",
    "status": "active"
  },
  {
    "id": "NTIC_[수도권제2순환선(봉담동탄)] 필봉산터널(봉담)_127.0703261",
    "name": "[수도권제2순환선(봉담동탄)] 필봉산터널(봉담)",
    "lat": 37.182124,
    "lng": 127.0703261,
    "url": "http://cctvsec.ktict.co.kr/8326/wkwPoG0FqN+pB8XqqmD4Fhx7IjSOFHuJZ0IB3GeLi4JdSmavS2N3aZnL91AIGOzej1Sd/sIEnu4tXtmja3xu5QoGqfpu7SWtHpNg5amDqmw=",
    "source": "NTIC",
    "status": "active"
  },
  {
    "id": "NTIC_[평택화성선] 서오산영업소_127.0063889",
    "name": "[평택화성선] 서오산영업소",
    "lat": 37.18388889,
    "lng": 127.0063889,
    "url": "http://cctvsec.ktict.co.kr/2143/VqmMAePAUbboAElw137R+VV5RwavVBKC02lrwxs/KVKlHOlhTJoHaBJE93ABbzXOx8qRj9QosDDqkAsjaX+LctOqBwwH14YYtlBnGxu9t8I=",
    "source": "NTIC",
    "status": "active"
  },
  {
    "id": "NTIC_[제2순환선] 북오산IC_127.06",
    "name": "[제2순환선] 북오산IC",
    "lat": 37.18389,
    "lng": 127.06,
    "url": "http://cctvsec.ktict.co.kr/2544/ttPuaC7SiELiijgOOYSNzVw1DvXqQZYK2WVJ1ymBr/cEj50eYsaY9Ge6NBf1auhoFnBN0IERymTyjMylKJY2FnIhmdRrcOJQnlq46faR8kw=",
    "source": "NTIC",
    "status": "active"
  },
  {
    "id": "NTIC_[경부선] [부산]경부동탄터널(출구)_127.095229",
    "name": "[경부선] [부산]경부동탄터널(출구)",
    "lat": 37.188535,
    "lng": 127.095229,
    "url": "http://cctvsec.ktict.co.kr/91427/QKYOAiFNdrl7fLmog0A9z9028jXzDaNWSOPMa6ivFN3rJf5iJwUmJAQxe0+ZwbysH9NWZDEqXwd7p68X5oxvB5hwkKvgv87DIvgj4lpCuuI=",
    "source": "NTIC",
    "status": "active"
  },
  {
    "id": "NTIC_[경부선] [서울]경부동탄터널(입구방음터널)_127.095698",
    "name": "[경부선] [서울]경부동탄터널(입구방음터널)",
    "lat": 37.192195,
    "lng": 127.095698,
    "url": "http://cctvsec.ktict.co.kr/8128/HFeHYJf6viArBD0Cjfzca/AxR3zT8DyRK/F/tbZN1XXilxxN9pmCUsAqyxZ4T4RP398ASrmsPOZa/ivT6+N1hBVWvF1iy0dFOrn4fnPE6IU=",
    "source": "NTIC",
    "status": "active"
  },
  {
    "id": "NTIC_[평택화성선] 안녕IC_127.0119444",
    "name": "[평택화성선] 안녕IC",
    "lat": 37.19222222,
    "lng": 127.0119444,
    "url": "http://cctvsec.ktict.co.kr/2661/byvSJuaIDd+ZhwjWt7bVpCuw/jBEgObufr8g6fkKqu/WGsutjQPH3VMslFiFUbCV27lFP5AkaIO3T7vKxFRYL5jN7ZlXZSfMvGqp5uxSRZ0=",
    "source": "NTIC",
    "status": "active"
  },
  {
    "id": "NTIC_[경부선] [서울]경부동탄터널(서울1)_127.095739",
    "name": "[경부선] [서울]경부동탄터널(서울1)",
    "lat": 37.192276,
    "lng": 127.095739,
    "url": "http://cctvsec.ktict.co.kr/8129/rESwI4M2R6oodjxxirw+2tYLcx/DkRHhoeHWGcOAKLYOaeI5UYKP6ef5j3ilZVIwuBRd0GBNJSwg9nLpRI7iDRixQ+SZnNYVsa6TXjYtkQk=",
    "source": "NTIC",
    "status": "active"
  },
  {
    "id": "NTIC_[경부선] [부산]경부동탄터널(출구방음터널)_127.095223",
    "name": "[경부선] [부산]경부동탄터널(출구방음터널)",
    "lat": 37.193552,
    "lng": 127.095223,
    "url": "http://cctvsec.ktict.co.kr/91426/CfiE5XJM8b0vkAIfJBRcWAS1Tpj2fmjoTMQtcCpIvA0Uqj0c4bqsuTeIu/b1tFZZYXyNsAVH/shFefQhWtHM7vWPjIKFsuQ620VeM7nbm7Q=",
    "source": "NTIC",
    "status": "active"
  },
  {
    "id": "NTIC_[경부선] [서울]경부동탄터널(서울2)_127.095739",
    "name": "[경부선] [서울]경부동탄터널(서울2)",
    "lat": 37.19497299,
    "lng": 127.095739,
    "url": "http://cctvsec.ktict.co.kr/8130/gTO/HPYaOeU/i6Hhdiqe9xJdzF17myeiWfxr6QDGWY7LtZlweHZGSH0dVOBL4oB17eomG2ESYcxPnueFF7DJHgZcaqQVOyYFVfXFnP1sSHU=",
    "source": "NTIC",
    "status": "active"
  },
  {
    "id": "NTIC_[경부선] [부산]경부동탄터널(부산5)_127.095162",
    "name": "[경부선] [부산]경부동탄터널(부산5)",
    "lat": 37.195621,
    "lng": 127.095162,
    "url": "http://cctvsec.ktict.co.kr/91425/3Z6wce4ek5oexpQbD7OiiZnCOLVFyLvS/8ovKP0VINmZnkyowlBvZkeh0wRh810OaEpsJyrn3F1PlbbhymTMjcHoZB3wbDG8SAv27uaLwP8=",
    "source": "NTIC",
    "status": "active"
  },
  {
    "id": "NTIC_[경부선] [서울]경부동탄터널(서울3)_127.095739",
    "name": "[경부선] [서울]경부동탄터널(서울3)",
    "lat": 37.19676971,
    "lng": 127.095739,
    "url": "http://cctvsec.ktict.co.kr/8756/aCqFs5b1y5vpvYeGnqi2gARFI49E7tz9zOJ93AlPA8JdUk5W2RPI0w4Sfo/VQNuuZ2i0lcU7GHIVkbiY2vokLuJhm1ehHtMpWo5E3z+1v8M=",
    "source": "NTIC",
    "status": "active"
  },
  {
    "id": "NTIC_[경부선] [부산]경부동탄터널(부산4)_127.095198",
    "name": "[경부선] [부산]경부동탄터널(부산4)",
    "lat": 37.19787,
    "lng": 127.095198,
    "url": "http://cctvsec.ktict.co.kr/91424/hWuODvwpLt1wlc02kfWfcJpfg8YhQZup2mHr35iX/Efd67BFQDkMNIbrYbWkLQKYLuCdlbEXj1rdfGimfDetoK2/P2TQv/Uxe6xoNGXKogk=",
    "source": "NTIC",
    "status": "active"
  },
  {
    "id": "NTIC_[경부선] [서울]경부동탄터널(서울4)_127.095739",
    "name": "[경부선] [서울]경부동탄터널(서울4)",
    "lat": 37.19945908,
    "lng": 127.095739,
    "url": "http://cctvsec.ktict.co.kr/8757/jvqDNp+kJIMJioxVnvruqqMjqwplrwKeOBv2FHLIKagut+xwKAnX9Wy++iROVQwrNpOiInuH5pwU9Do2cMxEdpYTZyU3CqPTu47fGLIWwrs=",
    "source": "NTIC",
    "status": "active"
  },
  {
    "id": "NTIC_[경부선] 진위천교_127.11528",
    "name": "[경부선] 진위천교",
    "lat": 37.10806,
    "lng": 127.11528,
    "url": "http://cctvsec.ktict.co.kr/507/Q1vco5B988kxVESg1xS6UMZrZtGzsm5d6kqIlRP4Baw/eDfUustNImjTABOFRh1AtGHX8/NuPGEPci2G+wmqZejFVMYFvNkqmiMdnu5ZxBg=",
    "source": "NTIC",
    "status": "active"
  },
  {
    "id": "NTIC_[경부선] 외동천교_127.109972",
    "name": "[경부선] 외동천교",
    "lat": 37.118007,
    "lng": 127.109972,
    "url": "http://cctvsec.ktict.co.kr/2437/skuMVwXZUJEfyQkVHtGc6qb9sb+mOUcLGBvaRS58H/nUhG6ZMO5/6BqHstaO/Jlo4Lkvz95PkPSxECQUsVN/h9z3/Y4C1nCOsH9Ypety4r4=",
    "source": "NTIC",
    "status": "active"
  },
  {
    "id": "NTIC_[수도권제2순환선(화성광주)] 신리3교_127.1123974",
    "name": "[수도권제2순환선(화성광주)] 신리3교",
    "lat": 37.18047609,
    "lng": 127.1123974,
    "url": "http://cctvsec.ktict.co.kr/80194/KOyhLxL/vHS6t3ta4ipKHImZ8kOGsEmdsKPVAOTZsE8bcq5+4twIV+UgOYKAgXBCwlkwmQzbcPa1VWKCSj1DMV+/AJN4pMBJc++lAcfUa3Q=",
    "source": "NTIC",
    "status": "active"
  },
  {
    "id": "NTIC_[수도권제2순환선(화성광주)] 동탄터널_127.1234345",
    "name": "[수도권제2순환선(화성광주)] 동탄터널",
    "lat": 37.19373111,
    "lng": 127.1234345,
    "url": "http://cctvsec.ktict.co.kr/80195/VKi3oOviBJZl8wTdmnFbsfaxIgd948Vy+QpzmQVTmklOiEXGYlKirYEIFwadvwv9TJTnD/vBhGs9imDlIhmJMOFrImWlI4KfkweCCTo+fLU=",
    "source": "NTIC",
    "status": "active"
  },
  {
    "id": "NTIC_[세종포천선] [세종]고삼터널(세종)-11/11_127.2989948",
    "name": "[세종포천선] [세종]고삼터널(세종)-11/11",
    "lat": 37.10619349,
    "lng": 127.2989948,
    "url": "http://cctvsec.ktict.co.kr/95312/rQK2deZhOjLXVmethI4nIMKrwg7k7PsnG/cn09Jt2JtO8D6er5e1hgX77h81RPEMiwBxWMDtWKr2+XeNyr4DiynBcPOW+bCQHbbKk2tMZzg=",
    "source": "NTIC",
    "status": "active"
  },
  {
    "id": "NTIC_[세종포천선] [포천]고삼터널(포천)-1/11_127.2997151",
    "name": "[세종포천선] [포천]고삼터널(포천)-1/11",
    "lat": 37.10626375,
    "lng": 127.2997151,
    "url": "http://cctvsec.ktict.co.kr/95311/EyAZXg15fRvP4q/bQ4j6vT3yNOy5BqRnUNrVyT3csZH6UeSDsjEEr7sD1a3RtvUCbKBp1eV4rpWfFLoc8FbnZiQ3yDqJfSyJT5XIFLTSlhk=",
    "source": "NTIC",
    "status": "active"
  },
  {
    "id": "NTIC_[세종포천선] [세종]고삼터널(세종)-9/11_127.2972568",
    "name": "[세종포천선] [세종]고삼터널(세종)-9/11",
    "lat": 37.110559,
    "lng": 127.2972568,
    "url": "http://cctvsec.ktict.co.kr/95316/3QlvDHctEfHbOZvvsLlh/tptlkD9Y/3YJCfCJf/aImmQ7tT4jVW8zRRe/Z3ufmBnHI6O2uEwRWBbF2DtjaLEbBj51rFBgvBQeIgnjX0KmUc=",
    "source": "NTIC",
    "status": "active"
  },
  {
    "id": "NTIC_[세종포천선] [포천]고삼터널(포천)-3/11_127.2978876",
    "name": "[세종포천선] [포천]고삼터널(포천)-3/11",
    "lat": 37.11073763,
    "lng": 127.2978876,
    "url": "http://cctvsec.ktict.co.kr/95315/a0v1CCSgYo3dQmJSSr+lqvMHvquKZ9TARQxaczweC9BabFOsrdzxFCmRSZ/OSEbXzNRlfJN2a0dhyeIReTFWaefxtU+1WnNoBWiziR28mRQ=",
    "source": "NTIC",
    "status": "active"
  },
  {
    "id": "NTIC_[세종포천선] [세종]고삼터널(세종)-7/11_127.2950205",
    "name": "[세종포천선] [세종]고삼터널(세종)-7/11",
    "lat": 37.11413279,
    "lng": 127.2950205,
    "url": "http://cctvsec.ktict.co.kr/95320/kN/qoihCPkUCp9rzz/yPIhJbUyvLPine84qOoBssPMEgCMNKzszCO10AuQRGdc9z0vxuYTeDQ1FXBB0VoIzCzGDseo0L88nZMdWZBhT7qvo=",
    "source": "NTIC",
    "status": "active"
  },
  {
    "id": "NTIC_[세종포천선] [포천]고삼터널(포천)-5/11_127.2961009",
    "name": "[세종포천선] [포천]고삼터널(포천)-5/11",
    "lat": 37.11420218,
    "lng": 127.2961009,
    "url": "http://cctvsec.ktict.co.kr/95319/Wz8Irn/u/LmbITS3aFq5zSClbmqwspj9H54dol5acpbk61APL2FRXmz/bqyoqwjcXTCtXpKPyf/UacPGgoHCcii/a6xF3kULjX/NoMv/Xpg=",
    "source": "NTIC",
    "status": "active"
  },
  {
    "id": "NTIC_[세종포천선] [세종]고삼터널(세종)-5/11_127.2939025",
    "name": "[세종포천선] [세종]고삼터널(세종)-5/11",
    "lat": 37.11597373,
    "lng": 127.2939025,
    "url": "http://cctvsec.ktict.co.kr/95323/XxujUfoXFiXNkEhXh4NM2bj0R6Z6Lpslc4oPhHF8Ja70VSVBDzBXj5FpM1Ave/KXcGStdzxpjCxvj4yum5eD79LL+csdoA1ylVx8sM4oWlw=",
    "source": "NTIC",
    "status": "active"
  },
  {
    "id": "NTIC_[세종포천선] [포천]고삼터널(포천)-7/11_127.2945782",
    "name": "[세종포천선] [포천]고삼터널(포천)-7/11",
    "lat": 37.11611623,
    "lng": 127.2945782,
    "url": "http://cctvsec.ktict.co.kr/95324/KGG7SkqhkiddNjlgyo22DPjIlIJ3CaYZRTCalwJ7kZeD3HDeqsA22qyX9Vqqy+FqrWRx+sdX05/COceKgOSrfxHQUdWiKlBNA98swtXlJjc=",
    "source": "NTIC",
    "status": "active"
  },
  {
    "id": "NTIC_[세종포천선] [세종]고삼터널(세종)-3/11_127.2922938",
    "name": "[세종포천선] [세종]고삼터널(세종)-3/11",
    "lat": 37.11896923,
    "lng": 127.2922938,
    "url": "http://cctvsec.ktict.co.kr/95327/KrPFfokIF2WpqYIrdQBNsm9ldIS3t8cNulV2pO/mVmnbzUgwenhwro3K9Db2i84cXQPZYuWkm6AxtSuq/Evjt2guCOLuJ4qPQRtGB3UPE+8=",
    "source": "NTIC",
    "status": "active"
  },
  {
    "id": "NTIC_[세종포천선] [포천]고삼터널(포천)-9/11_127.2922938",
    "name": "[세종포천선] [포천]고삼터널(포천)-9/11",
    "lat": 37.11896923,
    "lng": 127.2922938,
    "url": "http://cctvsec.ktict.co.kr/95328/psw4o0uLm9hB6JUj8DtCpu3+ZyunW0sx5f8vcgy7a2mVzblWM06sjHDfaszD8IytY0ILwrHtLHE/FlfZ4FX297JLUG0/LeY3dfXTnVyQU9c=",
    "source": "NTIC",
    "status": "active"
  },
  {
    "id": "NTIC_[세종포천선] [세종]고삼터널(세종)-1/11_127.2880346",
    "name": "[세종포천선] [세종]고삼터널(세종)-1/11",
    "lat": 37.12334079,
    "lng": 127.2880346,
    "url": "http://cctvsec.ktict.co.kr/95331/uFaFR4m7nLWa3WDvtN7ltPQxVKQtQsegfl1DH3KE+6IlzqJMfZZVA3j6R20883UN01Ct1moQXxUlAwCmB3+phRiONuUCZP7sEJbqTPlxldM=",
    "source": "NTIC",
    "status": "active"
  },
  {
    "id": "NTIC_[세종포천선] [포천]고삼터널(포천)-11/11_127.2884401",
    "name": "[세종포천선] [포천]고삼터널(포천)-11/11",
    "lat": 37.12344793,
    "lng": 127.2884401,
    "url": "http://cctvsec.ktict.co.kr/95332/+uRF9EfeGvqqmWAS1LstJmiwHJ1OqipDbjy+6OHI3V0ID52Q8eeUsPG957PO2lWyMSp6UQUXLkH4Ta3cRjO8REp5VXORKKg3OdV4aBfOKGU=",
    "source": "NTIC",
    "status": "active"
  },
  {
    "id": "NTIC_[세종포천선] [세종]쌍령터널(세종)-2/3_127.2834343",
    "name": "[세종포천선] [세종]쌍령터널(세종)-2/3",
    "lat": 37.13293916,
    "lng": 127.2834343,
    "url": "http://cctvsec.ktict.co.kr/95335/QCaoFPQyXkagVjZ1Dw49DMVnJE3p74ZZATdj5C82dqqLTqMjIiZODEXHTRmTjXYCG3d4dYJ4lrdDulVKNXgtDB1cn5zOzneUW34wW9tE1kU=",
    "source": "NTIC",
    "status": "active"
  },
  {
    "id": "NTIC_[세종포천선] [포천]쌍령터널(포천)-2/3_127.28411",
    "name": "[세종포천선] [포천]쌍령터널(포천)-2/3",
    "lat": 37.13304567,
    "lng": 127.28411,
    "url": "http://cctvsec.ktict.co.kr/95336//G3+7FGxntXUMibFe87+DL+onKA5x6yM/iixWYKWq7hPNkP0Zalxd/8zODWO5Jm4rpCWCVnaU1eSbK5mX+GfZNlFw/JJVySSOG8ftkC0Iyc=",
    "source": "NTIC",
    "status": "active"
  },
  {
    "id": "NTIC_[세종포천선] 쌍령터널_127.2827247",
    "name": "[세종포천선] 쌍령터널",
    "lat": 37.13883377,
    "lng": 127.2827247,
    "url": "http://cctvsec.ktict.co.kr/95271/V5zZXOvUe1E1UcU4a7W9Knu4+393UbD283Di3j/cIJ+L+3OhT1CCDbDiaIrhwsVdhDr+t0SJ6WB/9fTgH309JU3k73gxnc0r97ZAOWA+8jA=",
    "source": "NTIC",
    "status": "active"
  },
  {
    "id": "NTIC_[세종포천선] 남용인_127.2794664",
    "name": "[세종포천선] 남용인",
    "lat": 37.14724837,
    "lng": 127.2794664,
    "url": "http://cctvsec.ktict.co.kr/95272/mza/0YjZrBXUkPOMFJGhcwfD6oCLzmlSmiVqVNtTvUoAsofOb5CyqVI6vTPkcMs7E2gtT9gptaIoimgpEOiZI+Z12vdEA2QJJ9otO+BUNxo=",
    "source": "NTIC",
    "status": "active"
  },
  {
    "id": "NTIC_[세종포천선] [포천]문수1터널(포천)-외부1/1_127.2766274",
    "name": "[세종포천선] [포천]문수1터널(포천)-외부1/1",
    "lat": 37.15274697,
    "lng": 127.2766274,
    "url": "http://cctvsec.ktict.co.kr/95339/KBHvswcoIDu2Cqzsp9c8xmqS4Io550AxYhDpzgOhaPPc3RAMeeCCft/32x5j1L7pHjxoYqzcAFsmAF6BZT1Ymp33mjFzDLd8twqhJqeeYSA=",
    "source": "NTIC",
    "status": "active"
  },
  {
    "id": "NTIC_[세종포천선] [세종]문수1터널(세종)-6/7_127.2728685",
    "name": "[세종포천선] [세종]문수1터널(세종)-6/7",
    "lat": 37.16006325,
    "lng": 127.2728685,
    "url": "http://cctvsec.ktict.co.kr/95342/lFy8lMf+Lq1EE/udNSsqpdO5yohf0DCM+mSUhDCM/HXUdqQHeg1zqdLwv5o5MI/FKuZHftfUZ/qjkK5rHC6PYzeQ7x47Qllln/byN5so9yw=",
    "source": "NTIC",
    "status": "active"
  },
  {
    "id": "NTIC_[세종포천선] [포천]문수1터널(포천)-2/7_127.2734202",
    "name": "[세종포천선] [포천]문수1터널(포천)-2/7",
    "lat": 37.16008901,
    "lng": 127.2734202,
    "url": "http://cctvsec.ktict.co.kr/95343/RlZiZi+6kP8wkNJZeEyT7x/Tis9kpMDbR/qDPhl4+8o64+9GHT3pfEH/eqt727sPnmek57Ewp+Fmzb+CVb98LPTZW7PmVk+oHBzDLkw1234=",
    "source": "NTIC",
    "status": "active"
  },
  {
    "id": "NTIC_[세종포천선] [세종]문수1터널(세종)-4/7_127.2708056",
    "name": "[세종포천선] [세종]문수1터널(세종)-4/7",
    "lat": 37.16561847,
    "lng": 127.2708056,
    "url": "http://cctvsec.ktict.co.kr/95346/Rv/WO0JbkQgvxEF4zTZfrSdZVYvsV97wiCRxONifDOZJ5OZd58rMJog90KZ5wj0/b2JlX0cPiSBuIbWWTlCxP+86bayACYcwCeHjAT4PRd4=",
    "source": "NTIC",
    "status": "active"
  },
  {
    "id": "NTIC_[세종포천선] [포천]문수1터널(포천)-4/7_127.2714137",
    "name": "[세종포천선] [포천]문수1터널(포천)-4/7",
    "lat": 37.16565313,
    "lng": 127.2714137,
    "url": "http://cctvsec.ktict.co.kr/95347/WS+ZexaBbB38femhHF2Mj/muZ9izM0ymALMJAUgz18dRjvjJf/+XKjDJDf7OLV984Z/pS2yCXFSnaz+GM/ZtyYdRu5joTUHXu7iMssxTjrc=",
    "source": "NTIC",
    "status": "active"
  },
  {
    "id": "NTIC_[세종포천선] [세종]문수1터널(세종)-2/7_127.2680503",
    "name": "[세종포천선] [세종]문수1터널(세종)-2/7",
    "lat": 37.17288723,
    "lng": 127.2680503,
    "url": "http://cctvsec.ktict.co.kr/95350/MZtQaNXAY4h5rNjZ0fP0/2LAs/hB1FxqTY309MPeOFzdvu55iaKVJj34flAbdq1d79F0mM7LrD96BgwKcJTdAIA4wQRzaE6mQZn9XJxv1NQ=",
    "source": "NTIC",
    "status": "active"
  },
  {
    "id": "NTIC_[세종포천선] [포천]문수1터널(포천)-6/7_127.2687598",
    "name": "[세종포천선] [포천]문수1터널(포천)-6/7",
    "lat": 37.17293068,
    "lng": 127.2687598,
    "url": "http://cctvsec.ktict.co.kr/95351/O20lWHjbJW1qq+ZdSu4H/9hVqFsdqB61ZaOCMSitDaCXYIpF+eMjWTb8f5T5v+L1khPMLXbHa0iewY8mShwCljKPPd/dlkBXtai/Fq+XzgY=",
    "source": "NTIC",
    "status": "active"
  },
  {
    "id": "NTIC_[세종포천선] 문수2터널_127.2671465",
    "name": "[세종포천선] 문수2터널",
    "lat": 37.17523201,
    "lng": 127.2671465,
    "url": "http://cctvsec.ktict.co.kr/95273/5uhThxdwebbuFcmG6gcbH1U4Qkkfz11SJVuU3iJnNmkgNAkC+hl7oy5KIJujw5uJJzZOc2iUIe5p3cuwPJZKcXsm6nJAatfSfj2hY2MWTIo=",
    "source": "NTIC",
    "status": "active"
  },
  {
    "id": "NTIC_[세종포천선] [세종]문수3터널(세종)-4/4_127.2657302",
    "name": "[세종포천선] [세종]문수3터널(세종)-4/4",
    "lat": 37.17915928,
    "lng": 127.2657302,
    "url": "http://cctvsec.ktict.co.kr/95356/RtYljtiWxasg+KchCo8clKiIs46BFQenZihOniQ7itNnXtHLj5Lqwl/DWGM3BBMgf+TP/DB76nWV8wmrf8jXtG0/d/OMuV/DhTnl22lAXNk=",
    "source": "NTIC",
    "status": "active"
  },
  {
    "id": "NTIC_[세종포천선] [세종]문수3터널(세종)-3/4_127.2657302",
    "name": "[세종포천선] [세종]문수3터널(세종)-3/4",
    "lat": 37.17915928,
    "lng": 127.2657302,
    "url": "http://cctvsec.ktict.co.kr/95358/QwM1BC+pIB9+V0SoNeAOjwL1P9N+F24epYNq4088AbX75z4JHDx6fq9SwkxGwvMoCqsNAaFqX3qEBcXyGc/0NYHQYi4uZ3qJIhFMvkL+K+8=",
    "source": "NTIC",
    "status": "active"
  },
  {
    "id": "NTIC_[세종포천선] [포천]문수3터널(포천)-2/3_127.266144",
    "name": "[세종포천선] [포천]문수3터널(포천)-2/3",
    "lat": 37.17995579,
    "lng": 127.266144,
    "url": "http://cctvsec.ktict.co.kr/95359/XPtAlNny/Gn3FmwcGgf8bqBSPfJrn1ZzPQavYR2OGSk3CkT+n1oWW9O9FnZNY9mGBdjUhzR1nkWqrr40lKRUF2pcjGOzjqeELaOkObaPtb0=",
    "source": "NTIC",
    "status": "active"
  },
  {
    "id": "NTIC_[세종포천선] [세종]문수3터널(세종)-1/4_127.2650826",
    "name": "[세종포천선] [세종]문수3터널(세종)-1/4",
    "lat": 37.18558073,
    "lng": 127.2650826,
    "url": "http://cctvsec.ktict.co.kr/95362/KZAVb4FR1vE3lLIhhXde3ivM2/QEd9d9I3icvhId2m0NceC631bm6cRUmCLeObDdotO5X8hJg2/VBmSMI6eOhsmbkZG/CsW+4w1yO7kqi7c=",
    "source": "NTIC",
    "status": "active"
  },
  {
    "id": "NTIC_[세종포천선] [포천]해곡터널(포천)-외부1/1_127.2654934",
    "name": "[세종포천선] [포천]해곡터널(포천)-외부1/1",
    "lat": 37.18710259,
    "lng": 127.2654934,
    "url": "http://cctvsec.ktict.co.kr/95363/XAXbUB7iQZyhk0poJgQv5Zve9qnPovwgyNe4T9OfASY9llEvw8ftPszG8vSa/aCXWfl5l2Wb8MgxSxVOhHNu7jUpLMDcfcr39hC/wkNZ/2c=",
    "source": "NTIC",
    "status": "active"
  },
  {
    "id": "NTIC_[세종포천선] [세종]해곡터널(세종)-1/1_127.2665671",
    "name": "[세종포천선] [세종]해곡터널(세종)-1/1",
    "lat": 37.19299305,
    "lng": 127.2665671,
    "url": "http://cctvsec.ktict.co.kr/95365/N0UOnkWVbk3WEITbT8pCyWyQWGMrOyfDmt4KLy9Unp5btjkzVj3cjNBvMcWXFZAXbZptiFyGtpVik6hW6+INEHkTyu9Kw9/aPlF+mv3g+vk=",
    "source": "NTIC",
    "status": "active"
  },
  {
    "id": "NTIC_[세종포천선] [포천]운학터널(포천)-2/12_127.2683899",
    "name": "[세종포천선] [포천]운학터널(포천)-2/12",
    "lat": 37.19567406,
    "lng": 127.2683899,
    "url": "http://cctvsec.ktict.co.kr/95369/rFcc2O6pPIgKOtjiYeSpHo7+ePx4A+AKc/PVO1jt/ewg8vcsNYN6bCo9kLCZl1EwNMDBsjEcMo/LI19rRC/yC8TDb/BrlnmSfAnZjJn9kNc=",
    "source": "NTIC",
    "status": "active"
  },
  {
    "id": "NTIC_[세종포천선] [세종]운학터널(세종)-13/13_127.2676642",
    "name": "[세종포천선] [세종]운학터널(세종)-13/13",
    "lat": 37.19588745,
    "lng": 127.2676642,
    "url": "http://cctvsec.ktict.co.kr/95366/tzcwC0G92j3Kw8Xa3A9CIVrFyPSMoxEPVCZ98fBVxtqg92Urb/gJjf4ma9scdVktnhrm5Av1kzs02ALmuLkS265OBNizJl7KxD9eABpPmEo=",
    "source": "NTIC",
    "status": "active"
  },
  {
    "id": "NTIC_[세종포천선] [포천]운학터널(포천)-4/12_127.2696738",
    "name": "[세종포천선] [포천]운학터널(포천)-4/12",
    "lat": 37.19879328,
    "lng": 127.2696738,
    "url": "http://cctvsec.ktict.co.kr/95373/aRI/O/MY1IQ3aBeesUWNv5kbXx57gW2P110xhgCnrIqf8CKpu+dS0TCyIdIYIUBWdNOdwrSVLmxccfNoNj3w6JPON2cXRjtqBnh3MKOkMk8=",
    "source": "NTIC",
    "status": "active"
  },
  {
    "id": "NTIC_[세종포천선] [세종]운학터널(세종)-11/13_127.2687738",
    "name": "[세종포천선] [세종]운학터널(세종)-11/13",
    "lat": 37.19911971,
    "lng": 127.2687738,
    "url": "http://cctvsec.ktict.co.kr/95370/qIyrQR44E+E5hPOhWuaTn1V/kw60DDg/pGIObzo3bqJufOX7lMaJkdd9x6C4TvR91Tf1asNGIsQBueGgZD/uWLvGb0YRfq9/WfNSG1mvTJw=",
    "source": "NTIC",
    "status": "active"
  },
  {
    "id": "NTIC_[중부선] 낙타고개1_127.4450252",
    "name": "[중부선] 낙타고개1",
    "lat": 37.11929898,
    "lng": 127.4450252,
    "url": "http://cctvsec.ktict.co.kr/161/DVhZZRVDS6oJWAyVsrDq2ZYD2VunJ6BIch15BxM10VJ7fJ7pvqV6nqOtTYoY3cEN6TaPJ+SE73PCjA/2eMF42+9T4k88zx3E15OL4yIRucE=",
    "source": "NTIC",
    "status": "active"
  },
  {
    "id": "NTIC_[중부선] 낙타고개2_127.4386452",
    "name": "[중부선] 낙타고개2",
    "lat": 37.14540898,
    "lng": 127.4386452,
    "url": "http://cctvsec.ktict.co.kr/158/D2UTm3UfMiNRqiwvnEReOIwAfWnwgrsK4yb9TtLfMk9o42P7jVWpZBfwjuWm9GgMu11AFSIIR0kzOZtr6X/3QTZhkVAywcv4AzXdbCgsCCg=",
    "source": "NTIC",
    "status": "active"
  },
  {
    "id": "NTIC_[중부선] 모가_127.4404726",
    "name": "[중부선] 모가",
    "lat": 37.16832113,
    "lng": 127.4404726,
    "url": "http://cctvsec.ktict.co.kr/23/jdpfloR79uC9cwUNI3RrFdBnyNZ9cnqP+Js6ZJhVAEYX7mjRMlolLFMAfX0/qg6/QReeBbtUHfHgBIpunUlS+ZuMI3PXIaWjlVQJx5J70Fs=",
    "source": "NTIC",
    "status": "active"
  },
  {
    "id": "NTIC_[중부선] 남이천_127.44123459",
    "name": "[중부선] 남이천",
    "lat": 37.18186031,
    "lng": 127.44123459,
    "url": "http://cctvsec.ktict.co.kr/2286/OMLexHuzbbeH2WUfIY7mxNBmzpSABmxdpJE7JTSiIqC2R6csXnCwcZpuu05x2Sg4+eO87X1JY/daoUvJfybC4UVCBp3zWi5lBUxgpXEGCJY=",
    "source": "NTIC",
    "status": "active"
  },
  {
    "id": "NTIC_[중부선] 모가 졸음쉼터_127.4435326",
    "name": "[중부선] 모가 졸음쉼터",
    "lat": 37.19804113,
    "lng": 127.4435326,
    "url": "http://cctvsec.ktict.co.kr/157/pbq1D+s3hgV7Q51ey+lXXzKjI9M3/zr689gYJAcFbqL78fo/6kuVIalmFFFICk4CZEOBnWqqmhlDPSsZbU4800eke0089uqZlLKpp2JvqwQ=",
    "source": "NTIC",
    "status": "active"
  },
  {
    "id": "NTIC_[평택시흥선] 송산마도_126.76002",
    "name": "[평택시흥선] 송산마도",
    "lat": 37.20911,
    "lng": 126.76002,
    "url": "http://cctvsec.ktict.co.kr/5153/TkfHB9aU7USDYFNUfl7kKCwpKhvPOIPKu4GNmcIvyRI0goSH/mZiBl+rUO0tYSbHWrYdM/+90GR0D48tzraGLzlSp1CBzPR54/sT3LjOEfU=",
    "source": "NTIC",
    "status": "active"
  },
  {
    "id": "NTIC_[평택시흥선] 용포1교_126.76085",
    "name": "[평택시흥선] 용포1교",
    "lat": 37.22518,
    "lng": 126.76085,
    "url": "http://cctvsec.ktict.co.kr/5154/rtorH4BlNcEroms+20Q2eTY3POAOSpJh/quu2jAbTT52qrz1j82ovjELH1RT3lYBnyen+4MOdeglqAEeCBCFf7LRr1m69+Qq9iDgy2umqjg=",
    "source": "NTIC",
    "status": "active"
  },
  {
    "id": "NTIC_[평택시흥선] 송산포도휴게소_126.75863",
    "name": "[평택시흥선] 송산포도휴게소",
    "lat": 37.23941,
    "lng": 126.75863,
    "url": "http://cctvsec.ktict.co.kr/5155/36bRcp7aXAfsq8MKh6XSRKNjj325njV1GgJyTN/M4jb5oE6pVAT52KOW3B2Yw7evNGLFfpWmC4hqpB91afl6fQytLG3fUKUF2woMlTqSQHw=",
    "source": "NTIC",
    "status": "active"
  },
  {
    "id": "NTIC_[평택시흥선] 고정2교_126.75254",
    "name": "[평택시흥선] 고정2교",
    "lat": 37.25191,
    "lng": 126.75254,
    "url": "http://cctvsec.ktict.co.kr/5156/wymGBJ6kj1lqCVMQoWg6g5SrEpiFP2k1wyJe8xE0wP2q1lxW4etmCK8TAy8PEvIRrV2lY8hg+jrEkBWGHj/3i5eSeoDwvQ8F+zOBiHxlmwU=",
    "source": "NTIC",
    "status": "active"
  },
  {
    "id": "NTIC_[평택시흥선] 공룡알화석지_126.74591",
    "name": "[평택시흥선] 공룡알화석지",
    "lat": 37.26559,
    "lng": 126.74591,
    "url": "http://cctvsec.ktict.co.kr/5157/xJXvjOq4y/u328xZMS2zfQWOpsOtHVxp5fhkJ+su2R9C7ZP5ENB0f567UbiFv6z9ipyZ4d0uwtcKcK2dEr7KgycDQi2t4iOagut74HKM3T0=",
    "source": "NTIC",
    "status": "active"
  },
  {
    "id": "NTIC_[평택시흥선] 음섬2교_126.74568",
    "name": "[평택시흥선] 음섬2교",
    "lat": 37.28407,
    "lng": 126.74568,
    "url": "http://cctvsec.ktict.co.kr/5158/QI6oS0mejEspEUi3fb8K5FQ+kXvRWpfxOPYXn4NvbUgB6GOzG6mFu3Fwa+LB1D3Y8Ye7DDRg8Y1nV9uoioYJ+Vp8wG72GKX8inP+dVuXUSQ=",
    "source": "NTIC",
    "status": "active"
  },
  {
    "id": "NTIC_[평택시흥선] 시화대교_126.74616",
    "name": "[평택시흥선] 시화대교",
    "lat": 37.29868,
    "lng": 126.74616,
    "url": "http://cctvsec.ktict.co.kr/5159/eiPXuRCOVl22BD7jN/jzqkjgWndhMsslSWhocBX/Id/9aHMfCBIs5aAIoR9kF/pjuIW1PbcBEc/Q4ckixnmPp+8/pl23fbAVMUCSrHxu15M=",
    "source": "NTIC",
    "status": "active"
  },
  {
    "id": "NTIC_[수도권제2순환선(봉담송산)] 남비봉팔탄_126.8915819",
    "name": "[수도권제2순환선(봉담송산)] 남비봉팔탄",
    "lat": 37.2001884,
    "lng": 126.8915819,
    "url": "http://cctvsec.ktict.co.kr/5776/TK3FEDf4+Dmo9AKGtrP81I7iNTqC/Ed3JDTOofT7l0UdWyyVhgjJnopSxDzwrgA9zinytGtzrZNTngTwb37rnXrKKG7VFPe/ekmEkw2fss0=",
    "source": "NTIC",
    "status": "active"
  },
  {
    "id": "NTIC_[서해안선] 양노1교_126.876161",
    "name": "[서해안선] 양노1교",
    "lat": 37.22895823,
    "lng": 126.876161,
    "url": "http://cctvsec.ktict.co.kr/557/Y9WiSfItrl5/Gj7MU81S5BQOAq9mKFeN/ejeNmMhnGnskuDpLMvFumWL9jYW1aA19p19qY9uh1E86/1/LKlwkh/o+/MUL19UPtzzjqGCAwk=",
    "source": "NTIC",
    "status": "active"
  },
  {
    "id": "NTIC_[서해안선] 구포2교_126.879516601562",
    "name": "[서해안선] 구포2교",
    "lat": 37.2344093322753,
    "lng": 126.879516601562,
    "url": "http://cctvsec.ktict.co.kr/276/bwsRP4oPC8RRM350Ct+WgSCMUDqY0M8Uhwd3Db/LaQmwB2o018rSAT7EyqrcnG471E/98xq6OBsx8PzGYDUgj9AA6QwE1zir4hGVVDnwXuA=",
    "source": "NTIC",
    "status": "active"
  },
  {
    "id": "NTIC_[서해안선] 비봉_126.8823091",
    "name": "[서해안선] 비봉",
    "lat": 37.24346873,
    "lng": 126.8823091,
    "url": "http://cctvsec.ktict.co.kr/104/pDk9zx48/heMhBd3LA4YgGQDzLy28T94TOSa4Mx83jvCSp89sDSQJhhyJChe2DN0/RA+g8iVTJZM4G7gLFsRIMGvMDV+AI+aIUjAvzsT2Gc=",
    "source": "NTIC",
    "status": "active"
  },
  {
    "id": "NTIC_[서해안선] 야목2교_126.887918",
    "name": "[서해안선] 야목2교",
    "lat": 37.262359,
    "lng": 126.887918,
    "url": "http://cctvsec.ktict.co.kr/558/mV5wDO5xO3ULuoy1HTuYftNRSUAGsrsK0hnFNYMv7Dm7BwGYko1wBHclq7xKV1GNnXcgK+2b2prBgf4/LQUOMjtpvCxe1X9qh1SsyK8j6tg=",
    "source": "NTIC",
    "status": "active"
  },
  {
    "id": "NTIC_[서해안선] 매송휴게소_126.893455505371",
    "name": "[서해안선] 매송휴게소",
    "lat": 37.2691040039062,
    "lng": 126.893455505371,
    "url": "http://cctvsec.ktict.co.kr/277/Fe68+kobbK43YbjOcon2XWF1ImZ02YQFxWUe0NOW/mOVlsXITxDXxkD6m4/HtT55u4qq1yvsO/Hg4aoP6HGelKa4uILmF9rAXnieQPYsfME=",
    "source": "NTIC",
    "status": "active"
  },
  {
    "id": "NTIC_[서해안선] 매송_126.8974167",
    "name": "[서해안선] 매송",
    "lat": 37.27772456,
    "lng": 126.8974167,
    "url": "http://cctvsec.ktict.co.kr/103/YGryT7F/JbCQKWpljGnuWfGHLbOdHnoOJgxzbpeHP8A+YI01SOeMi/trIaaMr4IR97QQrquWOVf7CjrZ4eWcwRDryK213oS0j0T6R8cynQ4=",
    "source": "NTIC",
    "status": "active"
  },
  {
    "id": "NTIC_[수도권제2순환선(봉담송산)] 남봉담IC_126.9399729",
    "name": "[수도권제2순환선(봉담송산)] 남봉담IC",
    "lat": 37.20227977,
    "lng": 126.9399729,
    "url": "http://cctvsec.ktict.co.kr/5781/Y+1tUqKqGNgL5Cxi214oLadXaABSmUn4271lVPl4sQ55RfzcrlMBrCeYg3Yv4IVOYCF9xHM6a/88LXAJaRgXrEgax9/y31JjOBYuNWOzwdo=",
    "source": "NTIC",
    "status": "active"
  },
  {
    "id": "NTIC_[수도권제2순환선(봉담송산)] 청요요금소_126.9051303",
    "name": "[수도권제2순환선(봉담송산)] 청요요금소",
    "lat": 37.20661443,
    "lng": 126.9051303,
    "url": "http://cctvsec.ktict.co.kr/5777/KDT4FTKd75u1XJTcGJs6cqLhnW1sMJ6Dd2fLo34ClPJn97/A185ikNwXeQbrmQ8kKoVlsf6oQD1aOI5bdxL4cBQ/wyyV4MuPkjklD40i7Bs=",
    "source": "NTIC",
    "status": "active"
  },
  {
    "id": "NTIC_[수도권제2순환선(봉담송산)] 봉담터널_126.9051303",
    "name": "[수도권제2순환선(봉담송산)] 봉담터널",
    "lat": 37.20661443,
    "lng": 126.9051303,
    "url": "http://cctvsec.ktict.co.kr/5778/zEdabvj0CoEdXQn7VYzgCVHL/aFjBHmga/b91NcUt/cfaOTaLZmzNhegn+b71HImEw4LH/Bya/4zOmNsXkFh93ku96WTRIcWX0MO9RWgsYk=",
    "source": "NTIC",
    "status": "active"
  },
  {
    "id": "NTIC_[수도권제2순환선(봉담송산)] 봉담터널입구(송산)_126.9211617",
    "name": "[수도권제2순환선(봉담송산)] 봉담터널입구(송산)",
    "lat": 37.20920491,
    "lng": 126.9211617,
    "url": "http://cctvsec.ktict.co.kr/5779/Q+Wui6zSQZlmkD07dlA82Qh8qaSDJbPBjAZ/MenBsJulr76f615dpKKy8Co3KG5smY74EDMOepMBI9huJkO9swldk0rcCmEKgq3SPhYqGrM=",
    "source": "NTIC",
    "status": "active"
  },
  {
    "id": "NTIC_[수도권제2순환선(봉담송산)] 봉담터널출구(봉담)_126.9211617",
    "name": "[수도권제2순환선(봉담송산)] 봉담터널출구(봉담)",
    "lat": 37.20920491,
    "lng": 126.9211617,
    "url": "http://cctvsec.ktict.co.kr/5780/REaKeeGhpC5KGzStE3x06c2vlbGmKvcQ+4XXpAUmpOpsl0cTuQud035CmBQkYAL7G12reJbQ2/OgyoRjKwLv2l/5bmxdEH53RVdIGuCkrSE=",
    "source": "NTIC",
    "status": "active"
  },
  {
    "id": "NTIC_[평택화성선] 봉담터널(화성)_126.964088",
    "name": "[평택화성선] 봉담터널(화성)",
    "lat": 37.216411,
    "lng": 126.964088,
    "url": "http://cctvsec.ktict.co.kr/8404/WtRqPtKW+uZzjWYr5Xjvw5KutM1zk7L4irJUK/DHg9xeyUNGqBeIvA9n3e/Wq5a7Obw9+czsUYy+Bxc99ulF5Ump5pDXmfOXqj+9gv1Yk0w=",
    "source": "NTIC",
    "status": "active"
  },
  {
    "id": "NTIC_[제2순환선] 봉담방음터널(봉담)_126.9636111",
    "name": "[제2순환선] 봉담방음터널(봉담)",
    "lat": 37.21722222,
    "lng": 126.9636111,
    "url": "http://cctvsec.ktict.co.kr/2558/EfvY7RFAXR6oOR6v7CiaXGa6KgOdWg9BcZc61dfqxB+7vBpcs+7gp195kNMKoCTETFFrqAieRX7LJ0ghl3szUqOlOWpKanF890snbuap0Zs=",
    "source": "NTIC",
    "status": "active"
  },
  {
    "id": "NTIC_[평택화성선] 봉담터널(평택)_126.9636547",
    "name": "[평택화성선] 봉담터널(평택)",
    "lat": 37.2174521,
    "lng": 126.9636547,
    "url": "http://cctvsec.ktict.co.kr/8403/UTSl7kIIjPfpa4EQ1KGcvOFITvzprw0BSsQWTTqvCzbTmVbBFBuXgFkTPaJ97Y6Dlp6hMSdS0UDCHDtCYXTLoIYejbiZvGP3XHGQ+tWO+iY=",
    "source": "NTIC",
    "status": "active"
  },
  {
    "id": "NTIC_[평택화성선] 봉담_126.9565887",
    "name": "[평택화성선] 봉담",
    "lat": 37.22908865,
    "lng": 126.9565887,
    "url": "http://cctvsec.ktict.co.kr/2144/KY2BQtF7tAhCoVMdBgnibYqCHt0I/Sane4LkPsQZ4JSPVi2AN8jTSVvBfTUO4vzz7gJvNapWR/6gK2LbuugcZhmDouR47vyCtPTxBOyNfpo=",
    "source": "NTIC",
    "status": "active"
  },
  {
    "id": "NTIC_[수원광명선] 시점_126.95378",
    "name": "[수원광명선] 시점",
    "lat": 37.23354,
    "lng": 126.95378,
    "url": "http://cctvsec.ktict.co.kr/5169/KB367dZzP8OpzsDW6LaDnRxiG6MzEmbbMz/9q/czxUjZOEfV80Kv+OXM/t9kxz943XcilxKyfkULA6StS57BPEH0zvUeiuXmjsBN1gxDqOo=",
    "source": "NTIC",
    "status": "active"
  },
  {
    "id": "NTIC_[수원광명선] 금곡지하차도입구_126.949013",
    "name": "[수원광명선] 금곡지하차도입구",
    "lat": 37.254008,
    "lng": 126.949013,
    "url": "http://cctvsec.ktict.co.kr/5170/93czFMRbDkayNVLqJm/Bg3EFk7/VU+wIH3v0pfIZVCRJVBuG65tPGN/ItAAMu/Pjb2KS5NBUxkjWPXguDKpw8yfWo0o0based5rOP/GBVgI=",
    "source": "NTIC",
    "status": "active"
  },
  {
    "id": "NTIC_[수원광명선] 광명 금곡지하차도_126.948743",
    "name": "[수원광명선] 광명 금곡지하차도",
    "lat": 37.256418,
    "lng": 126.948743,
    "url": "http://cctvsec.ktict.co.kr/5171/k6Mgfe4c79yXTIK5cy4HpN8hXbArerMVNKZIb8xv3/7ypb2Pza93dyBCIyhiI33dnvmne7nye6e96zSIjRi0k9cGpgp3e9d4V2V/Ni7JGDk=",
    "source": "NTIC",
    "status": "active"
  },
  {
    "id": "NTIC_[수원광명선] 수원 금곡지하차도_126.949553",
    "name": "[수원광명선] 수원 금곡지하차도",
    "lat": 37.268952,
    "lng": 126.949553,
    "url": "http://cctvsec.ktict.co.kr/5172/DJ1eJe9KMWASEIyPju08SyGyrmXZg7ZfJ8GV7uhrtUXTlnQH1F6hShUQorRKCD3wXQhKANJIvL14FUAx1fVmPJ59bQ6WWXBM+CADJY0P0Fw=",
    "source": "NTIC",
    "status": "active"
  },
  {
    "id": "NTIC_[수원광명선] 금곡IC_126.94956",
    "name": "[수원광명선] 금곡IC",
    "lat": 37.284557,
    "lng": 126.94956,
    "url": "http://cctvsec.ktict.co.kr/5173/M1TBtqFzUHR9LMHQVDyhCdx7OQN6Tqre2lEAaCuH6AmRzRzb7jcmov8aCxXoz0Bo+NEX8YcP77llr7kJjFrkuzJHAyIHY7qIdZfjAOpRRq8=",
    "source": "NTIC",
    "status": "active"
  },
  {
    "id": "NTIC_[수원광명선] 동안산당수IC_126.938067",
    "name": "[수원광명선] 동안산당수IC",
    "lat": 37.299544,
    "lng": 126.938067,
    "url": "http://cctvsec.ktict.co.kr/5174/aEuTZSBg5mv0cCQYPSq2oR3JjgRWoY1fx1itf00GxhmJxY9dEI8di+yms4EcLoCuY9Xw4OgdYSWksVvc4Rj5xn3KfJuyg5dnaUKGbeSSSgU=",
    "source": "NTIC",
    "status": "active"
  },
  {
    "id": "NTIC_[경부선] [부산]경부동탄터널(부산3)_127.09522",
    "name": "[경부선] [부산]경부동탄터널(부산3)",
    "lat": 37.200144,
    "lng": 127.09522,
    "url": "http://cctvsec.ktict.co.kr/91423/SG+51romgjfCLLclukJnzXWfyFWLcbAFODX/wr7NIgPtYh+mxtyiUqyX1mMomUpxz3wBolTQvkxyo7rQR6fxuykKiTrDiQePARRdvR1oGfA=",
    "source": "NTIC",
    "status": "active"
  },
  {
    "id": "NTIC_[경부선] [서울]경부동탄터널(서울5)_127.095739",
    "name": "[경부선] [서울]경부동탄터널(서울5)",
    "lat": 37.20215225,
    "lng": 127.095739,
    "url": "http://cctvsec.ktict.co.kr/8758/0zXGqZAwBKlYR4JDAzT30TODbsM7zQmx2sGCOwtLs3BupBR88uLxsdv2i4pxvkkAKUnxMHh6HLvkmXpTXuj3HbD4l7xidtb3ed4GLdY101Y=",
    "source": "NTIC",
    "status": "active"
  },
  {
    "id": "NTIC_[경부선] [부산]경부동탄터널(부산2)_127.095185",
    "name": "[경부선] [부산]경부동탄터널(부산2)",
    "lat": 37.2024,
    "lng": 127.095185,
    "url": "http://cctvsec.ktict.co.kr/91422/MXWURt+GVIX5fyCULBANGEORkpCsgMjWg6hrgXVxF1d4wkM1tf86/AEc5lSn4KuWZMea4+krYlGQJppQoqUH0MbXr2Lx17P5tmfAU72oMS0=",
    "source": "NTIC",
    "status": "active"
  },
  {
    "id": "NTIC_[경부선] [부산]경부동탄터널(부산1)_127.095211",
    "name": "[경부선] [부산]경부동탄터널(부산1)",
    "lat": 37.204393,
    "lng": 127.095211,
    "url": "http://cctvsec.ktict.co.kr/91421/n/bpQwWn0WWR5VRHGHQIgKAhQ1EdWISSdArG0ou6F23AmnUQGQfVRmkhXPGh36szEmB3VPDsToijEEPmVHJtUKJzOYCJyPsZrrYGnO2wHNw=",
    "source": "NTIC",
    "status": "active"
  },
  {
    "id": "NTIC_[경부선] [서울]경부동탄터널(출구방음터널)_127.095739",
    "name": "[경부선] [서울]경부동탄터널(출구방음터널)",
    "lat": 37.206036,
    "lng": 127.095739,
    "url": "http://cctvsec.ktict.co.kr/8759/5dSwg1fMzxHmeU4PirpRMKogiLa+lzdzcdks3hzK1jOxS9y6YrfSif8ZKeV6oBb1JVSi6yttm+tczRzFl7TDXpRTXvknEyXUJoxTgFS2Img=",
    "source": "NTIC",
    "status": "active"
  },
  {
    "id": "NTIC_[경부선] [부산]경부동탄터널(입구방음터널)_127.095186",
    "name": "[경부선] [부산]경부동탄터널(입구방음터널)",
    "lat": 37.207042,
    "lng": 127.095186,
    "url": "http://cctvsec.ktict.co.kr/91305/ZiG+CINfCXQYqOeL9mbzmjcvu4pw6oNyZEYU1EFbrOgcTQOHBhjqL7LHC/1ZPYji+OI6bHeZsc64gqsBDYIhT6GNEzt0/T2AUR6mBAo6Ed0=",
    "source": "NTIC",
    "status": "active"
  },
  {
    "id": "NTIC_[경부선] [서울]경부동탄터널(출구)_127.09575",
    "name": "[경부선] [서울]경부동탄터널(출구)",
    "lat": 37.207194,
    "lng": 127.09575,
    "url": "http://cctvsec.ktict.co.kr/8760/oc2V6onjgbitmHkV/oZpmJj21rIkD6Iwwhq3vfliAaPQKmftDTZENWhCXGzCQEo/+cw5YMmQm/3Ux7rVsDaZIYmycwn2LWMFpPnFKzDDq4M=",
    "source": "NTIC",
    "status": "active"
  },
  {
    "id": "NTIC_[용인서울선] 흥덕IC 용인_127.0785635",
    "name": "[용인서울선] 흥덕IC 용인",
    "lat": 37.27900286,
    "lng": 127.0785635,
    "url": "http://cctvsec.ktict.co.kr/5123/pkEqgY2TAbQq3zOB8+sa9C9b9CfYQoTvykL65Aaet2uU9ql69o+3JYOPiijVFIGH01gFaLmEnoJYTpF8Zx2UuphlY5Iz4C9tJWTtQMheDOs=",
    "source": "NTIC",
    "status": "active"
  },
  {
    "id": "NTIC_[용인서울선]흥덕IC(서울)_127.0765846",
    "name": "[용인서울선]흥덕IC(서울)",
    "lat": 37.27961806,
    "lng": 127.0765846,
    "url": "http://cctvsec.ktict.co.kr/5122/oyjSEGoSIYmNUWJO5SATxoE9z30aylD3IWMPgxshL/RUNjPE6+Wp5Zv/t9+lvlalT3sbf4FqqHGBLaZbEwFOE6D0Lx/jxgwJIFti73Jnhq8=",
    "source": "NTIC",
    "status": "active"
  },
  {
    "id": "NTIC_[용인서울선]금광지하차도 서울_127.0742667",
    "name": "[용인서울선]금광지하차도 서울",
    "lat": 37.28081389,
    "lng": 127.0742667,
    "url": "http://cctvsec.ktict.co.kr/5731/dttyXI57RfAowbwcEui8XHtAkuDmfyF4SGgSs0S7oTJTlLrf8smaam8TjqXdk/yy3Gvv+dU/izQA/Jh7DDn0UESk2Yy1WgOElDWBXR+CT48=",
    "source": "NTIC",
    "status": "active"
  },
  {
    "id": "NTIC_[용인서울선]금광지하차도 용인_127.0703972",
    "name": "[용인서울선]금광지하차도 용인",
    "lat": 37.28322778,
    "lng": 127.0703972,
    "url": "http://cctvsec.ktict.co.kr/5732/yhyEWsAOyYPaUGi8SBwTkN1jTPCeXiOZzq1Ws/5jCAmzArS5vuxGU+yf1wVuGiMvwQhQH7IpTT4j9jlYt9KgKuxff/btLmWtlq5dI8FulDM=",
    "source": "NTIC",
    "status": "active"
  },
  {
    "id": "NTIC_[용인서울선]여수내지하차도 서울_127.0697861",
    "name": "[용인서울선]여수내지하차도 서울",
    "lat": 37.28442778,
    "lng": 127.0697861,
    "url": "http://cctvsec.ktict.co.kr/5733/GuL0kkqNlR5uCTwUkMU8ORdMto5nJ7XaEKPICGIrwRX4m1U8AbDt4mIWUiQUHaNMGIpISdXW9e4GnZcOi+H4f6Hd+BhE4Y3mfiOiGIrk0hE=",
    "source": "NTIC",
    "status": "active"
  },
  {
    "id": "NTIC_[용인서울선]신대지하차도(서울)_127.0686233",
    "name": "[용인서울선]신대지하차도(서울)",
    "lat": 37.28605153,
    "lng": 127.0686233,
    "url": "http://cctvsec.ktict.co.kr/5124/APLkH/e8p8T53+gLclRx7txJIDOH+I3NtSKtovi8RZga6phQQF0NnpVMjGmDrfBAPgjp1YrZtqnBkqScoYIgC0JfcJSRbDTIdxnAS1zz1Rc=",
    "source": "NTIC",
    "status": "active"
  },
  {
    "id": "NTIC_[용인서울선] 신대지하차도 용인_127.0667327",
    "name": "[용인서울선] 신대지하차도 용인",
    "lat": 37.28872319,
    "lng": 127.0667327,
    "url": "http://cctvsec.ktict.co.kr/5125/3/HbS8YNzAm530fXVxEj9aN5n235Egc3bQd5UjxoCOQOxupWdp5SEUZV4SoNH5aXoi6FYOw7vrMOg9BrFQP/gzM79VzzEgSC2y+gVG+fahE=",
    "source": "NTIC",
    "status": "active"
  },
  {
    "id": "NTIC_[영동선] 기흥교_127.097469",
    "name": "[영동선] 기흥교",
    "lat": 37.289555,
    "lng": 127.097469,
    "url": "http://cctvsec.ktict.co.kr/3212/giH/ZPq1xvoL7oaEW8RJGByfNsPFuge8+l89sBQ461vLdUNTrFKQAZVQdtaD22072RTzFBv3HvoiAoVVxT92SoMZNRsQ/Ot6BTWwPJg70Ww=",
    "source": "NTIC",
    "status": "active"
  },
  {
    "id": "NTIC_[영동선] 광교반방음터널(인천외부1)_127.089294433593",
    "name": "[영동선] 광교반방음터널(인천외부1)",
    "lat": 37.2907409667968,
    "lng": 127.089294433593,
    "url": "http://cctvsec.ktict.co.kr/3721/Lf8fwrmh/AKCgXHkAcYNMyuqS2gsdnU3ecGMm1S/jx+ngRaoFxOj6JYeZe+bQ+17MsbIU0SDesiFUSsAUr1s6fm5lxxz+2PIGYnb/IltjEg=",
    "source": "NTIC",
    "status": "active"
  },
  {
    "id": "NTIC_[용인서울선]여수내지하차도 용인_127.0650167",
    "name": "[용인서울선]여수내지하차도 용인",
    "lat": 37.2911,
    "lng": 127.0650167,
    "url": "http://cctvsec.ktict.co.kr/5734/Ce8EjeCl9lZV/LXHDL8PEcL+YN+irTuh3GPwnEgD8VH2YyomkFOdtFfJUqBJTWZQFYFNWC0aGE8U1KlsAnLGjfBlYyibNIlA53ZgNES+n7M=",
    "source": "NTIC",
    "status": "active"
  },
  {
    "id": "NTIC_[용인서울선]동역지하차도 서울_127.0648833",
    "name": "[용인서울선]동역지하차도 서울",
    "lat": 37.29213333,
    "lng": 127.0648833,
    "url": "http://cctvsec.ktict.co.kr/5735/QoFi14ojgmquB1+FPmAZ5J5UMGMpsV1luNIhh7CuOc3IVqQ40HtCJbP6bJSLiDd2kjmtmJPLqHO5iJmtFAS3MT9xBC6OSOD44FU6dqsQxmI=",
    "source": "NTIC",
    "status": "active"
  },
  {
    "id": "NTIC_[영동선] 광교반방음터널(인천1)_127.083839416503",
    "name": "[영동선] 광교반방음터널(인천1)",
    "lat": 37.2921981811523,
    "lng": 127.083839416503,
    "url": "http://cctvsec.ktict.co.kr/3720/Rv2nGsSLAIAcEMGMDcG22KgMKBQWWFSmUGS8FYSrngf0ozDg07roplPoiHviuWfyxMbn/t5mJxkAaNoqfUBd8ZHEb1XMxHkFPDaFYfabHeY=",
    "source": "NTIC",
    "status": "active"
  },
  {
    "id": "NTIC_[용인서울선]동역지하차도 용인_127.0634472",
    "name": "[용인서울선]동역지하차도 용인",
    "lat": 37.29371389,
    "lng": 127.0634472,
    "url": "http://cctvsec.ktict.co.kr/5736/8L6Lx2JRRacqEjVN36E2ZKy+XrBWSXw4FEiiHJ3Q0jV6oWIZQe1ko+8T1QIYovpImi/EFKzWYnl8dauXVUkZz40YNPQyrLwNFn0EDVH3OSM=",
    "source": "NTIC",
    "status": "active"
  },
  {
    "id": "NTIC_[영동선] 광교방음터널(인천2)_127.075126647949",
    "name": "[영동선] 광교방음터널(인천2)",
    "lat": 37.2940368652343,
    "lng": 127.075126647949,
    "url": "http://cctvsec.ktict.co.kr/3719/tNYIkSR3Fl07JTik9fyrb8ZoLHHcXd4zr9m+2IYc20Mu7gscOzz/iIhUkJ832+w7kI4bUKJIgvu8j3lGhwTDP4MX8nauj3nT6yM1oKYIC5s=",
    "source": "NTIC",
    "status": "active"
  },
  {
    "id": "NTIC_[영동선] 광교방음터널(강릉5)_127.071815490722",
    "name": "[영동선] 광교방음터널(강릉5)",
    "lat": 37.2946166992187,
    "lng": 127.071815490722,
    "url": "http://cctvsec.ktict.co.kr/3718/hd4nBtp2heuuuZ7fizxPJCMIKJ3+ltDvssT3ETQ3zQ6mPyJ2rAu/u81NXn+EiN8k74cVP3wTTNshYu/8uIKEmUV3bb8gi5FV9DAkAH2KGTQ=",
    "source": "NTIC",
    "status": "active"
  },
  {
    "id": "NTIC_[영동선] 광교방음터널(강릉외부1)_127.058601379394",
    "name": "[영동선] 광교방음터널(강릉외부1)",
    "lat": 37.2969360351562,
    "lng": 127.058601379394,
    "url": "http://cctvsec.ktict.co.kr/3717/NnGpQCZlKv4rfKO78/5iz3MF6/ZST5wyqj+NYlAhIr13Ws2RpM+unfHvqO6+H9vPNHhB8YD1AD5GadMCwPY7CX+N3ohEMdhJWrK+VYR49uQ=",
    "source": "NTIC",
    "status": "active"
  },
  {
    "id": "NTIC_[영동선] [인천2]광교방음터널(인천2 외부1)_127.054374694824",
    "name": "[영동선] [인천2]광교방음터널(인천2 외부1)",
    "lat": 37.2979011535644,
    "lng": 127.054374694824,
    "url": "http://cctvsec.ktict.co.kr/495/fTEJVWpX7AnIYhAXgcsqULXqRjgj1rhxJpebUHzusvCT3pLSN69QOjZtVhNB5XGO9XLcb4j+MJbzZAcJDe+3/boxiySB7iu2WaOSpGe0k8A=",
    "source": "NTIC",
    "status": "active"
  },
  {
    "id": "NTIC_[용인서울선]광교상현IC_127.0605214",
    "name": "[용인서울선]광교상현IC",
    "lat": 37.29856176,
    "lng": 127.0605214,
    "url": "http://cctvsec.ktict.co.kr/5126/VOUVpRErCbupEIpxpq39mQfGr7gmzZehDPhkoZbUwij6Z4XYCp8UUm0PgCfhUITBUENkcA4l7bEa33zuB7ppi+tVZxCFyjiQtv/SeFpNz+c=",
    "source": "NTIC",
    "status": "active"
  },
  {
    "id": "NTIC_[영동선] 동수원_127.0502693",
    "name": "[영동선] 동수원",
    "lat": 37.29975701,
    "lng": 127.0502693,
    "url": "http://cctvsec.ktict.co.kr/591/c3sAKXsgGxunUGhnFlulYTb6QuwHT3AuS7bAZ/gU2scj9Yxiqpc9ZkoaIkYzu4ndCEwSgiXvDbOoGcLQ5Bxf7Q7IwHgJQkNaDNqli9xBmPk=",
    "source": "NTIC",
    "status": "active"
  },
  {
    "id": "NTIC_[수도권제2순환선(화성광주)] 동탄IC_127.1358312",
    "name": "[수도권제2순환선(화성광주)] 동탄IC",
    "lat": 37.20612617,
    "lng": 127.1358312,
    "url": "http://cctvsec.ktict.co.kr/80196/Sjt9gmF4VvX9GE62g4M5v9tBOY1vWhtld36MTriKsX2DA+GF7LcBBaTvC7pz3T7qAJKS4/uQ66RJG/lNT+PJuEtbUtGUXTHzM7VSmqH2Z3g=",
    "source": "NTIC",
    "status": "active"
  },
  {
    "id": "NTIC_[수도권제2순환선(화성광주)] 무봉산터널_127.1392732",
    "name": "[수도권제2순환선(화성광주)] 무봉산터널",
    "lat": 37.20889652,
    "lng": 127.1392732,
    "url": "http://cctvsec.ktict.co.kr/80197/0RMkJpii7zt6P8O/oh8bTln3PyBIjhLkzKhPGA3nWIXbRpFJEET90sHfvIGjbTReg3JPf07JdxMYnXASDHS6V6/b2lbnLrq6386H6xcRWxE=",
    "source": "NTIC",
    "status": "active"
  },
  {
    "id": "NTIC_[경부선] 기흥동탄_127.101335",
    "name": "[경부선] 기흥동탄",
    "lat": 37.222297,
    "lng": 127.101335,
    "url": "http://cctvsec.ktict.co.kr/2432/F9v94rEpZH2wdQbdUygOSqF8eMqmTXZvZvca1W0TYnVObkg5qXLWXQ/uAjgtxOG/iHhNPnquFDQFw0tME/9T0xKkgalEYhvwUbLFjlmjWog=",
    "source": "NTIC",
    "status": "active"
  },
  {
    "id": "NTIC_[경부선] 기흥_127.104398",
    "name": "[경부선] 기흥",
    "lat": 37.226449,
    "lng": 127.104398,
    "url": "http://cctvsec.ktict.co.kr/74/6bQLYnrzLzx89LSc//K+Guwh2akx1kIfxcvZ1p3n12ZJSHFkvILxrpFR7pZWbtGXmEzfohHJ97fWHUUr5woxuvDk088fVUy0fbFDIE4xee8=",
    "source": "NTIC",
    "status": "active"
  },
  {
    "id": "NTIC_[수도권제2순환선(화성광주)] 지곡터널_127.1505551",
    "name": "[수도권제2순환선(화성광주)] 지곡터널",
    "lat": 37.23166034,
    "lng": 127.1505551,
    "url": "http://cctvsec.ktict.co.kr/80198/XFsz4M3WxHSgVtvb882+XyKgElmZmP36F7p/NDOnAPr6r9PkglVgMVUpoRkJHhant5I/V+gUFVzktOXKsuHCTqwE43TkLCZudS45sYmQpWU=",
    "source": "NTIC",
    "status": "active"
  },
  {
    "id": "NTIC_[경부선] 기흥휴게소(부산)_127.10611",
    "name": "[경부선] 기흥휴게소(부산)",
    "lat": 37.23583,
    "lng": 127.10611,
    "url": "http://cctvsec.ktict.co.kr/503/0pUeJc/s6OewCb0KzexpDDV7MiBRCf0SZfuybd6Egd2WF9pZVEFGnaKGscg/maP2RILPaNJMZ11+64AnxUOgHIIHaOqlJLM5ZFkOeNeN1dw=",
    "source": "NTIC",
    "status": "active"
  },
  {
    "id": "NTIC_[수도권제2순환선(화성광주)] 서용인IC_127.1562492",
    "name": "[수도권제2순환선(화성광주)] 서용인IC",
    "lat": 37.2431886,
    "lng": 127.1562492,
    "url": "http://cctvsec.ktict.co.kr/80199/pZ4P9CfztTcFSzCZHvLbDlk8GjAzR07yL98FBGzp+2+edisO6ceuEU8EnWi+fZZJmFtA54+LjcoI8fBwoTY0koHcUk+MK5gp0DnLfbh0FhI=",
    "source": "NTIC",
    "status": "active"
  },
  {
    "id": "NTIC_[경부선] 공세육교_127.1038833",
    "name": "[경부선] 공세육교",
    "lat": 37.24564199,
    "lng": 127.1038833,
    "url": "http://cctvsec.ktict.co.kr/515/MZima5rd95alBATXLg1W1XpQnY695BUUb06V6CUclwBw840QCQfixc0J+HmYNQ+5tTDpVdJn5PS2oCvX0o+Mo1ng7BXVa7wTtmPvo2SeqHk=",
    "source": "NTIC",
    "status": "active"
  },
  {
    "id": "NTIC_[경부선] 보정교_127.104102",
    "name": "[경부선] 보정교",
    "lat": 37.252236,
    "lng": 127.104102,
    "url": "http://cctvsec.ktict.co.kr/94933/tlxa/TdM5m4GQnGB/tkbOesXIjjo0mQVmtjDymrjHYAo+oHDhX2XMiGbPyEaqKjSlu6BlyT1XeheRd2AtUbkpn2mVF3drA2wbS++/RUBCoI=",
    "source": "NTIC",
    "status": "active"
  },
  {
    "id": "NTIC_[수도권제2순환선(화성광주)] 삼가교_127.1718979",
    "name": "[수도권제2순환선(화성광주)] 삼가교",
    "lat": 37.25398474,
    "lng": 127.1718979,
    "url": "http://cctvsec.ktict.co.kr/80200/9GqTovpQiCY/XHUmhcVu7ImZB7F8Q0L51LmOmARMjwSUBZ+ERdPRPesUfNLpOA4Jp88CEPuFKwuV/paq7fIWU3+jobTQFRFziCDi22eG43U=",
    "source": "NTIC",
    "status": "active"
  },
  {
    "id": "NTIC_[경부선] 수원_127.103583",
    "name": "[경부선] 수원",
    "lat": 37.26395,
    "lng": 127.103583,
    "url": "http://cctvsec.ktict.co.kr/75/zutfJtBEEdNIFNnfGqwShernxKB4y8vytIgYZ984krGmnGWD9rNDW9pfpSOjcA5YGVXqeaubg6RKfAy/LhSCrKSB2gtu2OKagPub1pyR9Pc=",
    "source": "NTIC",
    "status": "active"
  },
  {
    "id": "NTIC_[영동선] 마성터널(강릉2 외부)_127.190643",
    "name": "[영동선] 마성터널(강릉2 외부)",
    "lat": 37.265935,
    "lng": 127.190643,
    "url": "http://cctvsec.ktict.co.kr/3206/z5vbpyy//yWCzOnkUVBk5U52/O6MT+7k90pPoDI4qTy8ULxACY0NgJdO7TN/vF/L2QCoppXkmvh691MyeG4WYK/yi7oT0Xs9LI/OkxUESus=",
    "source": "NTIC",
    "status": "active"
  },
  {
    "id": "NTIC_[경부선] 상갈_127.104048",
    "name": "[경부선] 상갈",
    "lat": 37.266929,
    "lng": 127.104048,
    "url": "http://cctvsec.ktict.co.kr/94791/IQYmstqi1q9mjnWDVEKlOBy89RxafSN/X/Jjr1HY2eSAPXjsZDjTuFzGsfYQTA4QLKR0pN5YSXR7gUzxd6oAVDog3C8oWEiBSQGtLejrSws=",
    "source": "NTIC",
    "status": "active"
  },
  {
    "id": "NTIC_[영동선] 서용인분기점_127.18866",
    "name": "[영동선] 서용인분기점",
    "lat": 37.268052,
    "lng": 127.18866,
    "url": "http://cctvsec.ktict.co.kr/95232/jk9fim905QUy5uJTJl6JufsppSIuQ/Fwd57Ks5asFmAsf9W0fXUqsEeELKU8tACNtf8ubh3J7F128Ig14C8IoM7OqXd4/dX720JwlVPtA6U=",
    "source": "NTIC",
    "status": "active"
  },
  {
    "id": "NTIC_[수도권제2순환선(화성광주)] 삼가터널_127.1846981",
    "name": "[수도권제2순환선(화성광주)] 삼가터널",
    "lat": 37.2680762,
    "lng": 127.1846981,
    "url": "http://cctvsec.ktict.co.kr/80201/2+xYjqhSVfH63Z4uz4M5Fk30PQonIhVC05IixaQi1/qze2HECfMc6U5wlkPqP1pmLcM3RRi84gfwYx32PPehcVKCxL9ddOT+MATbK3LTk+o=",
    "source": "NTIC",
    "status": "active"
  },
  {
    "id": "NTIC_[영동선] 마성터널(강릉)_127.1870097",
    "name": "[영동선] 마성터널(강릉)",
    "lat": 37.26842304,
    "lng": 127.1870097,
    "url": "http://cctvsec.ktict.co.kr/572/zKUn0HiV9yELZuZxxBSiQB+vm27eavwo8BR3wiJ2IT3WsvK2yO2vylQA/8EviIqOFgBwrnek8vLMltjqcei13ScNdU8XBjYXF3KGJDZ+8mA=",
    "source": "NTIC",
    "status": "active"
  },
  {
    "id": "NTIC_[영동선] 마성5_127.1859167",
    "name": "[영동선] 마성5",
    "lat": 37.26906667,
    "lng": 127.1859167,
    "url": "http://cctvsec.ktict.co.kr/94941/UnlRMEJ1YIBi4DuQppU3xQTRRghZqGsczHuBCh9vBH2aIoX5SLw0Oum3ges6I0RrKbj56Cwso1qdvnecftHBfLZEeQQ+ubDUNfLFPdbTCr0=",
    "source": "NTIC",
    "status": "active"
  },
  {
    "id": "NTIC_[영동선] 마성4_127.1862056",
    "name": "[영동선] 마성4",
    "lat": 37.26933056,
    "lng": 127.1862056,
    "url": "http://cctvsec.ktict.co.kr/94942/365tVbCaSQYYH+ACPQRapmVGG4LPLOrsmd/89OK7QTT5ii+U77Iwm3GYXIWCyD4sVd5P3NGzploBVEQvgFhV+vSeTKdBFVNT2jMNjwTt/+Y=",
    "source": "NTIC",
    "status": "active"
  },
  {
    "id": "NTIC_[수도권제2순환선(화성광주)] 서용인JCT_127.1912454",
    "name": "[수도권제2순환선(화성광주)] 서용인JCT",
    "lat": 37.27095793,
    "lng": 127.1912454,
    "url": "http://cctvsec.ktict.co.kr/80202/JUXSqYsQXAXGIWkaXDqbSV0ZeJKrb9fAosxNRpPT0pv4vsaukVH6TWJWDPCi5AQfj2/dIBrjM8hlxhdsTzwvNrhwV6urDVcUZEeWj4e8rxU=",
    "source": "NTIC",
    "status": "active"
  },
  {
    "id": "NTIC_[영동선] [강릉2]마성터널(강릉2 4)_127.181738",
    "name": "[영동선] [강릉2]마성터널(강릉2 4)",
    "lat": 37.272025,
    "lng": 127.181738,
    "url": "http://cctvsec.ktict.co.kr/8520/60kLMzvtxT68lLsBpiEXR6pd9ZX2kppl/hiyEkRpeddzHs7k6peeEMRRKwGRxGMX4qWc05djQI+SP4mLPj2TI0dKO0Ejl1h80A8zMWbO8Aw=",
    "source": "NTIC",
    "status": "active"
  },
  {
    "id": "NTIC_[경부선] 신갈 BS_127.104068",
    "name": "[경부선] 신갈 BS",
    "lat": 37.273917,
    "lng": 127.104068,
    "url": "http://cctvsec.ktict.co.kr/94790/V6czb2JbU7r4GliDBs80bxPz7xNeKkQJ3GZW5r6nS0WQ5cLGcetufhb3EEpmTRMp98lFAUioghrufa09dyq3n4q0Fx02yzL79zD5qI/jIkA=",
    "source": "NTIC",
    "status": "active"
  },
  {
    "id": "NTIC_[영동선] [인천1]마성터널(인천1 4)_127.176041",
    "name": "[영동선] [인천1]마성터널(인천1 4)",
    "lat": 37.277284,
    "lng": 127.176041,
    "url": "http://cctvsec.ktict.co.kr/8521/MR7PjA7AQOrrL6bg6oyPRHJ2XdpdxmSPN4TsGJhvkwocztNWMumBnKmjqh6INChAen3IqGqMNZTyM1lfLK51IfOqNSYwzkfvosdpEMEmSZQ=",
    "source": "NTIC",
    "status": "active"
  },
  {
    "id": "NTIC_[영동선] 마성2_127.178978",
    "name": "[영동선] 마성2",
    "lat": 37.278678,
    "lng": 127.178978,
    "url": "http://cctvsec.ktict.co.kr/3208/pTmXYGGdYdD5GCTyRZkGCcELkSfZJLmlw3CHqLO059eLnwCEZWm9shwwT22F7JlCWE8HyI8Ji3fTFAiI8TwseNjDR7SAE0l6pABqJ/2YCis=",
    "source": "NTIC",
    "status": "active"
  },
  {
    "id": "NTIC_[경부선] 신갈분기점2_127.1058333",
    "name": "[경부선] 신갈분기점2",
    "lat": 37.28,
    "lng": 127.1058333,
    "url": "http://cctvsec.ktict.co.kr/2014/4rpg1Chqc3EcnV3A1miAgcJIoit6SlUpBSeaEW+0F+24TaF2Vs+KH1mW3rmemj05wHKZIvY/4OBce90rGbrRqVHG/mCEDyP8C/F3V9o853Y=",
    "source": "NTIC",
    "status": "active"
  },
  {
    "id": "NTIC_[영동선] 마성터널(강릉1 외부2)_127.170981",
    "name": "[영동선] 마성터널(강릉1 외부2)",
    "lat": 37.281599,
    "lng": 127.170981,
    "url": "http://cctvsec.ktict.co.kr/3204/J1FqV2lVRsa7l1C35kQawKRtzAeQ/S4ojJdld3p3jAt2i6B7DPwgW6ONlOfa9OmD3j06hFUEDs/p3lJUP074BYSE/fjFAosJcbPrh/A2Fbg=",
    "source": "NTIC",
    "status": "active"
  },
  {
    "id": "NTIC_[영동선] 마성_127.176881",
    "name": "[영동선] 마성",
    "lat": 37.283769,
    "lng": 127.176881,
    "url": "http://cctvsec.ktict.co.kr/571/zd2I0AERUJSC+EZ+NkWG8GO2Tdxw8Me8Ns8GSaDgIeOzykXcbWBQo6ziD7DRnju8Z79kN27YNzvE9TxA/HMmyuJn6xSj124BEE2TorJYi2U=",
    "source": "NTIC",
    "status": "active"
  },
  {
    "id": "NTIC_[영동선] 마성터널(인천)_127.165356",
    "name": "[영동선] 마성터널(인천)",
    "lat": 37.285983,
    "lng": 127.165356,
    "url": "http://cctvsec.ktict.co.kr/83/rLJthhxFWv4nNWHmIo1pRit1ss2pOIpK+f70jJSBtySdmAGW8MMRjV2rn34N5t+wsp7aZ/+x/Mv4+JOA7qRkMcbA8VlzxbZTPsjEZvPPNLs=",
    "source": "NTIC",
    "status": "active"
  },
  {
    "id": "NTIC_[영동선] 마성1_127.167356",
    "name": "[영동선] 마성1",
    "lat": 37.286107,
    "lng": 127.167356,
    "url": "http://cctvsec.ktict.co.kr/3207/OPj6rfMiqmmxy5t5o7Vs1jsKvZ5iuqy6lM/goro5aQcRzvvSeepZgip1K1LJLQPKIJyuliYDMBP05jBEiztkoIuCrCRtKJdjxl3IZ9PjBL8=",
    "source": "NTIC",
    "status": "active"
  },
  {
    "id": "NTIC_[영동선] 동백교3_127.159274",
    "name": "[영동선] 동백교3",
    "lat": 37.287438,
    "lng": 127.159274,
    "url": "http://cctvsec.ktict.co.kr/3211/b92piG7nbYKggJWq4w6ICJ2Oc4bt/S5etE5zQljqMeWkH7ky5IfePEn1PS+xrHbJJyysOAuPTFoSobfUm0KS0dEL1huWzp1awKbaNYot9z4=",
    "source": "NTIC",
    "status": "active"
  },
  {
    "id": "NTIC_[영동선] 동백교2_127.15475",
    "name": "[영동선] 동백교2",
    "lat": 37.288446,
    "lng": 127.15475,
    "url": "http://cctvsec.ktict.co.kr/8279/uHiD0UBsGQ1388wHYGsxNxj5EAdQGo6k6k5EbvXTD0sIx7DW9+usSRGr4Y3Z6BNySwBO1DSoxX2U7Ne+Ab/njLPms5DUumYEq6hEhGGpGoE=",
    "source": "NTIC",
    "status": "active"
  },
  {
    "id": "NTIC_[영동선] 동백교_127.1401659",
    "name": "[영동선] 동백교",
    "lat": 37.2886675,
    "lng": 127.1401659,
    "url": "http://cctvsec.ktict.co.kr/570/z3xnrreP3m5hSga7c+Fo2lkF+Y574PZwLPhHf/wFdkWbua8EGif7KM5fzDJfqasO/6Kyh7sqLg85VsT8Bf+EJ9SVTQNecb9q0Y0besFDASY=",
    "source": "NTIC",
    "status": "active"
  },
  {
    "id": "NTIC_[영동선] 구성교_127.127049",
    "name": "[영동선] 구성교",
    "lat": 37.289945,
    "lng": 127.127049,
    "url": "http://cctvsec.ktict.co.kr/3215/FhptGSPl08T8lg7M9mvbC04L7rbk42PCGclt2llomWQsWWopcociKL8JQODgQKuxKd/FcN9bDQfTFcuX+2SRRxHzeIBOfKZ/b8Pb+LnLtbg=",
    "source": "NTIC",
    "status": "active"
  },
  {
    "id": "NTIC_[영동선] 신갈분기점_127.102307",
    "name": "[영동선] 신갈분기점",
    "lat": 37.28998,
    "lng": 127.102307,
    "url": "http://cctvsec.ktict.co.kr/90/DHlXj/lilGYdmN0r2tnNWL4OlkvCw1mo2rfdjLbvghEVl7RXWXCe/eu8M9C2qlINFKAL4dzaVG+6i3NWSDa5P0TjjwivW63KoDNoA+SQZ0o=",
    "source": "NTIC",
    "status": "active"
  },
  {
    "id": "NTIC_[영동선] 신갈분기점1-1_127.109188",
    "name": "[영동선] 신갈분기점1-1",
    "lat": 37.290477,
    "lng": 127.109188,
    "url": "http://cctvsec.ktict.co.kr/3722/WVuYOZUYtIlJCMxF7tU9Jb+PT5cryaAU+5+b7GFZwme62hfVl6OUcaZyOw3n4vaO2mMaBmddRga2Nhf192s56wFB74q4lrS4Mbyvb0fhSy0=",
    "source": "NTIC",
    "status": "active"
  },
  {
    "id": "NTIC_[영동선] 구성(인천)_127.122699",
    "name": "[영동선] 구성(인천)",
    "lat": 37.290969,
    "lng": 127.122699,
    "url": "http://cctvsec.ktict.co.kr/3209/tIE2c+i349NEt8j3zRCLWyDXIgfjtx97ut7TyS1AJgL8P/tkUonHzz7XPYAcyfmyy5gwBfguoHaPJbZNjd0HCJLxI1LoBqTPd1SigTkKkik=",
    "source": "NTIC",
    "status": "active"
  },
  {
    "id": "NTIC_[영동선] 구성(강릉)_127.122691",
    "name": "[영동선] 구성(강릉)",
    "lat": 37.290972,
    "lng": 127.122691,
    "url": "http://cctvsec.ktict.co.kr/3213/OOcg16xsVNo6Y9V2KUq13fXcnfZePH8QEPHbUxpAIkvSjPUdSKvUrAsG+0Y3aEx7dApMe7mRS22MBBnZn9CkGnkGRM2NUDaN8LcjDMOmg/o=",
    "source": "NTIC",
    "status": "active"
  },
  {
    "id": "NTIC_[경부선] 신갈분기점_127.10389",
    "name": "[경부선] 신갈분기점",
    "lat": 37.29111,
    "lng": 127.10389,
    "url": "http://cctvsec.ktict.co.kr/76/kWWLQ9J1wEP3KBdx/VLPkf0iuPULHTcUrEXKfWHbapQkbevY9pVVuxZ3yGK1FnpkjLp/NShUJL7tRXHeAYZSv7ISZ2jM0HUSsdsvJlov40w=",
    "source": "NTIC",
    "status": "active"
  },
  {
    "id": "NTIC_[영동선] 신갈분기점2_127.1152778",
    "name": "[영동선] 신갈분기점2",
    "lat": 37.29166667,
    "lng": 127.1152778,
    "url": "http://cctvsec.ktict.co.kr/569/kjr97sBQVAkGp9KJYqdHb/V8h1WwzWzFqWh3sHpSuiTCb2+0jVHEKUwXWlwUsv0hBYmS8KkJwntJpxf1GSvCUE/aOyuVZeNqJlMv2cwatEQ=",
    "source": "NTIC",
    "status": "active"
  },
  {
    "id": "NTIC_[세종포천선] [세종]운학터널(세종)-9/13_127.2693219",
    "name": "[세종포천선] [세종]운학터널(세종)-9/13",
    "lat": 37.2012089,
    "lng": 127.2693219,
    "url": "http://cctvsec.ktict.co.kr/95374/lALxymRPOQOjkq/5STmXJgtRM+GFecyLEFVBXmLoV3EqEOY1y5dqhK48+TmUkBRpYS5gHW0dKOescmzx985m5T3iwEmrGsmSwr1qRRPIJXk=",
    "source": "NTIC",
    "status": "active"
  },
  {
    "id": "NTIC_[세종포천선] [포천]운학터널(포천)-6/12_127.2709541",
    "name": "[세종포천선] [포천]운학터널(포천)-6/12",
    "lat": 37.20405249,
    "lng": 127.2709541,
    "url": "http://cctvsec.ktict.co.kr/95378/e/KDZQbeP657Tehy0RR+igm7Va32atWhO6gRV778ZLvb0ImX+uucPx8VQI0R2+21sKNtdQ9pe5sEUkzCB+C0nVi5n44PnBSrEORGtinI4X4=",
    "source": "NTIC",
    "status": "active"
  },
  {
    "id": "NTIC_[세종포천선] [세종]운학터널(세종)-7/13_127.2700081",
    "name": "[세종포천선] [세종]운학터널(세종)-7/13",
    "lat": 37.20412673,
    "lng": 127.2700081,
    "url": "http://cctvsec.ktict.co.kr/95377/pzK7QDWOgPwZT6hTPqSWubr/86gTR/i8s3VD4HY60lqEsJH3d8zC77vI9U1QMog9pvjDbS7UVCFxBjKSra1+eV9bk7CarOf8RCx0hVUuFnU=",
    "source": "NTIC",
    "status": "active"
  },
  {
    "id": "NTIC_[세종포천선] [포천]운학터널(포천)-8/12_127.2710593",
    "name": "[세종포천선] [포천]운학터널(포천)-8/12",
    "lat": 37.20826915,
    "lng": 127.2710593,
    "url": "http://cctvsec.ktict.co.kr/95382/QjoGLdXuQ6gFKQgWRg0nRiVIbQI0xej03oKoIMsDmrigxx9tjjR0woyU/uWYpah+I7bq22cyAsjPuQHhk70nQ1d63zZaE+54n23n6nEgEn4=",
    "source": "NTIC",
    "status": "active"
  },
  {
    "id": "NTIC_[세종포천선] [세종]운학터널(세종)-5/13_127.2701581",
    "name": "[세종포천선] [세종]운학터널(세종)-5/13",
    "lat": 37.20827121,
    "lng": 127.2701581,
    "url": "http://cctvsec.ktict.co.kr/95381/EoG8I3thAL9pUwt4us5GsS9lxOSHIzk8CXk35X75JFXf0w6vP9kto647A2D4ylhBu3sSenWh8d37m4m71YwzdEsS3gJyCwS656atJjDazdg=",
    "source": "NTIC",
    "status": "active"
  },
  {
    "id": "NTIC_[세종포천선] [세종]운학터널(세종)-3/13_127.2696763",
    "name": "[세종포천선] [세종]운학터널(세종)-3/13",
    "lat": 37.21216484,
    "lng": 127.2696763,
    "url": "http://cctvsec.ktict.co.kr/95385/gwMl6W0E9DcEtY86A3AOPZRWUA3WyCE/1KkY5pHhiPKew0dLMKdPmTikg65+Jvrq8cbrJZZS/a7+/S0Ws9abN7L/do7jCT27qAqvp4dE8+A=",
    "source": "NTIC",
    "status": "active"
  },
  {
    "id": "NTIC_[세종포천선] [포천]운학터널(포천)-10/12_127.2704429",
    "name": "[세종포천선] [포천]운학터널(포천)-10/12",
    "lat": 37.21230725,
    "lng": 127.2704429,
    "url": "http://cctvsec.ktict.co.kr/95386/+UjN5vtDtgbv4UthcV2LcQXxJskQnRtm6Zs9amtpuQ/EJR2sjL1gCij1QAZ2jRdRg6o24FwUOav+TGpNSvL8thJ9Zz3U1HG35kwxwX5R+V8=",
    "source": "NTIC",
    "status": "active"
  },
  {
    "id": "NTIC_[세종포천선] [세종]운학터널(세종)-1/13_127.2682508",
    "name": "[세종포천선] [세종]운학터널(세종)-1/13",
    "lat": 37.21685352,
    "lng": 127.2682508,
    "url": "http://cctvsec.ktict.co.kr/95389/83sJ2CViKdZ5x5/vqZurB9oJjFNhTH0jjaqtKZ1PycseP+CfTSiZyNM91iwYM1fUaQp7hsqfIUKUUJuKQKYAmKvot4IBbtx0tDmwU0ZHsaw=",
    "source": "NTIC",
    "status": "active"
  },
  {
    "id": "NTIC_[세종포천선] [포천]운학터널(포천)-12/12_127.2688828",
    "name": "[세종포천선] [포천]운학터널(포천)-12/12",
    "lat": 37.21714042,
    "lng": 127.2688828,
    "url": "http://cctvsec.ktict.co.kr/95390/tF3EqYhvhfQfcSW/VZiIfsmD8zWn2Xxg0ggkNlQpONVHdZZg7ILwdUc/fXsXx9BTYvltJ2q58uOeOoDRK78z39pXYyIMXKcZEFE/cCY9fH0=",
    "source": "NTIC",
    "status": "active"
  },
  {
    "id": "NTIC_[세종포천선] 운학터널_127.2658478",
    "name": "[세종포천선] 운학터널",
    "lat": 37.22232829,
    "lng": 127.2658478,
    "url": "http://cctvsec.ktict.co.kr/95274/SVUZGDW/on/hXdWyCzduLpJTtp1ssw/v6LWbGkGubd4itGyD2zENWoudhwqoxRZuHK0Cy75uf0MI+AnTH1Ot23bbTYpgJG+N9Yu5IogDqIQ=",
    "source": "NTIC",
    "status": "active"
  },
  {
    "id": "NTIC_[세종포천선] 양지천교_127.2590497",
    "name": "[세종포천선] 양지천교",
    "lat": 37.23108349,
    "lng": 127.2590497,
    "url": "http://cctvsec.ktict.co.kr/95275/Uq9IVxiV4IS8dXQ5YeeGTnGqzC70AIGutU+xo6VISJolWIHjPxpIXfIUVDMmBc2xeY4HZ5J+FCtTu1f6SZCXovULKXLSv+H76bUc7IZHAfo=",
    "source": "NTIC",
    "status": "active"
  },
  {
    "id": "NTIC_[세종포천선] 양지졸음쉼터_127.254155",
    "name": "[세종포천선] 양지졸음쉼터",
    "lat": 37.23741267,
    "lng": 127.254155,
    "url": "http://cctvsec.ktict.co.kr/95276/rq1WxOQwK+WbpeM+ouANpzSOS2bp3EkTb7/TGXzVP0fjo3ttPFMBDtGiozium6afiPQR9k738fGa4+DoiG9wyT+IfnQwlrp5rlQsPBV/ous=",
    "source": "NTIC",
    "status": "active"
  },
  {
    "id": "NTIC_[영동선] 양지_127.289",
    "name": "[영동선] 양지",
    "lat": 37.23899,
    "lng": 127.289,
    "url": "http://cctvsec.ktict.co.kr/86/Uv6sao+7/vgJins79bKjBMwbm0Xv6xaJLn0zLOsynjNceZ/GT7IsC9Aso8AzgHt1v6l/sDMbLS71LLm9ZDR3tTgGzPJVtjc6VUD+zmx75Ow=",
    "source": "NTIC",
    "status": "active"
  },
  {
    "id": "NTIC_[영동선] 양지터널외부(인천)_127.27693",
    "name": "[영동선] 양지터널외부(인천)",
    "lat": 37.243756,
    "lng": 127.27693,
    "url": "http://cctvsec.ktict.co.kr/8280/ZMc9MFROdUudUwZztb+0c8hmjdvX1eVAl8N1YeVPRRWrT/qKpAqNPx88lind6xvXWTn/iT3beMRnx3vUwbjsC15UVo/lVGRH8vZlxEoXQvg=",
    "source": "NTIC",
    "status": "active"
  },
  {
    "id": "NTIC_[영동선] 양지터널(강릉)_127.27105",
    "name": "[영동선] 양지터널(강릉)",
    "lat": 37.24582,
    "lng": 127.27105,
    "url": "http://cctvsec.ktict.co.kr/85/t/7Zai55xKzFtYMgX5mCWicPWUUS4U74lTsz+x4l5joXzfmAxZkyO7fpJ02vtg44mKusCV8JXt6FhZ2MSLqG5rJe3/mLkL2rZ5bFBzrKCJA=",
    "source": "NTIC",
    "status": "active"
  },
  {
    "id": "NTIC_[영동선] 양지터널(인천)_127.271537",
    "name": "[영동선] 양지터널(인천)",
    "lat": 37.246106,
    "lng": 127.271537,
    "url": "http://cctvsec.ktict.co.kr/574/eh5T1jf8fbM2GoQULfES4ng32ORReI2AfhmkhpgwFS+fzO44djnNnY/3SFqLPzaI3B0b5T7BjpzkW8Xsyqsx+ls1Nkjk4/SnqIthXJ14o8o=",
    "source": "NTIC",
    "status": "active"
  },
  {
    "id": "NTIC_[영동선] 용인휴게소(인천)_127.2419444",
    "name": "[영동선] 용인휴게소(인천)",
    "lat": 37.24666667,
    "lng": 127.2419444,
    "url": "http://cctvsec.ktict.co.kr/3214/bfZdxCVlRgo+nNNpvS/1VKZpJzeEm8Z5mQIjhNt8gNl6ei8Bc+Gte6XYcncc6ETe5v+fvbaXO17v8yanwb5IodGOZrWYdv0Eq9gMvxg2TSs=",
    "source": "NTIC",
    "status": "active"
  },
  {
    "id": "NTIC_[세종포천선] 용인분기점_127.2508342",
    "name": "[세종포천선] 용인분기점",
    "lat": 37.25043982,
    "lng": 127.2508342,
    "url": "http://cctvsec.ktict.co.kr/95277/9CXyRqfVlZoGcVvCzKnxlv37midPDEANB79WtDHvEUDzuI3DCo9exsIeB6jEC6gNcwdUkjGyYYziB7YrYUi7O8TQ+TGsVpNa6ZeLjZ4SNg4=",
    "source": "NTIC",
    "status": "active"
  },
  {
    "id": "NTIC_[영동선] 용인_127.209628",
    "name": "[영동선] 용인",
    "lat": 37.25668164,
    "lng": 127.209628,
    "url": "http://cctvsec.ktict.co.kr/84/9W7H596pfW3J72uGZ56AA8tL++32qRnb79F0eT517CFsRh6jP8zHnNY2s/BakEndu3+5pPnRaCeIaB39yVkZW29VyoZksLk/EIPXSvAjAdQ=",
    "source": "NTIC",
    "status": "active"
  },
  {
    "id": "NTIC_[세종포천선] [포천]포곡1터널(포천)-외부1/1_127.2510473",
    "name": "[세종포천선] [포천]포곡1터널(포천)-외부1/1",
    "lat": 37.25861632,
    "lng": 127.2510473,
    "url": "http://cctvsec.ktict.co.kr/95391/ZVKTxNXN/in2XjZXEY6EuvcK3ovwdVIHuFljKQM3VOGua/2Xwgl6JDgUHL9ADg5Ah+lZotY5PfdrtfYQSebHIrBC44AZuggTdHcRABIfDmI=",
    "source": "NTIC",
    "status": "active"
  },
  {
    "id": "NTIC_[세종포천선] [포천]포곡1터널(포천 2)_127.2512146",
    "name": "[세종포천선] [포천]포곡1터널(포천 2)",
    "lat": 37.26487819,
    "lng": 127.2512146,
    "url": "http://cctvsec.ktict.co.kr/95395/Pk4b9AJEvLrDmttsurquuNO1sbDQIEsGJvbVA73ZwvxcATcVTZ1YK8dvlon8K9HChTRmOwYLfmFqVh9xLE6BYpgITpn+1Mj5oAe/L3a+PYA=",
    "source": "NTIC",
    "status": "active"
  },
  {
    "id": "NTIC_[세종포천선] [세종]포곡1터널(세종 5)_127.2506511",
    "name": "[세종포천선] [세종]포곡1터널(세종 5)",
    "lat": 37.26493345,
    "lng": 127.2506511,
    "url": "http://cctvsec.ktict.co.kr/95394/9es9dOVDiianiYZonQrq8xweNTOdPsvkTsPxSp1eDVVRCYMH2ATT9MOLv8kCSPIAac1es1+bYlaGGWrqDVjJ9GelvCeUsy97TR/z1h35JLA=",
    "source": "NTIC",
    "status": "active"
  },
  {
    "id": "NTIC_[수도권제2순환선(화성광주)] 대대교_127.2644632",
    "name": "[수도권제2순환선(화성광주)] 대대교",
    "lat": 37.26759249,
    "lng": 127.2644632,
    "url": "http://cctvsec.ktict.co.kr/80207/x377aNxyDGRWYGFFyb7jP5W3FhAV8sTh9bpRxeXIA77xrnQHQKqg3USSaWkOKZ+CX25YqPTRn4RdMS4lP5SeF0FJtE/U4acXpwZlNyd5nqE=",
    "source": "NTIC",
    "status": "active"
  },
  {
    "id": "NTIC_[수도권제2순환선(화성광주)] 정수터널_127.2911118",
    "name": "[수도권제2순환선(화성광주)] 정수터널",
    "lat": 37.26844459,
    "lng": 127.2911118,
    "url": "http://cctvsec.ktict.co.kr/80208/0u21+ZsfpNwAFI6bKkUYIFUvcs2OHSnYyOvxP7bT7O9DJPYUJjauezBD6MNcS8SEmqZihF4N5qIC4igRMngM2AiveHj9K2xUT3g3mW7nnr8=",
    "source": "NTIC",
    "status": "active"
  },